~Version Information
VERS.                      2.0: CWLS Log ASCII Standard - VERSION 2.0
WRAP.                       NO: One line per depth step
#Non standard LAS - data should be wrapped
~Well Information Block
STRT.M                  140.00: START DEPTH
STOP.M                   80.00: STOP DEPTH
STEP.M                 -0.0500: STEP
NULL.                -999.2500: NULL VALUE
COMP.                         : COMPANY
WELL.                         : WELL
FLD.                          : FIELD
LOC.                          : LOCATION
DATE.         26 05-38-47 2014: LOG DATE
~Curve Information Block
DEPT.M             0 000 00 00: Depth
LSPD.M/MIN                   0: Line Speed
LTEN.KG                      0: Surface Line Tension
CCL.                        0: Casing Collar Locator
GR.GAPI                     0: Gamma Ray
WTEMP.DEGC                  0: GTC Well Temperature
MNRD.MM                      0: Min Radius
AVRD.MM                      0: Avg Radius
MXRD.MM                      0: Max Radius
R01.MM                       0: Radius 01
R02.MM                       0: Radius 02
R03.MM                       0: Radius 03
R04.MM                       0: Radius 04
R05.MM                       0: Radius 05
R06.MM                       0: Radius 06
R07.MM                       0: Radius 07
R08.MM                       0: Radius 08
R09.MM                       0: Radius 09
R10.MM                       0: Radius 10
R11.MM                       0: Radius 11
R12.MM                       0: Radius 12
R13.MM                       0: Radius 13
R14.MM                       0: Radius 14
R15.MM                       0: Radius 15
R16.MM                       0: Radius 16
R17.MM                       0: Radius 17
R18.MM                       0: Radius 18
R19.MM                       0: Radius 19
R20.MM                       0: Radius 20
R21.MM                       0: Radius 21
R22.MM                       0: Radius 22
R23.MM                       0: Radius 23
R24.MM                       0: Radius 24
~A  Depth   LSPD LTEN     CCL       GR    WTemp MNRD   AVRD   MXRD    R01    R02    R03    R04    R05    R06    R07    R08    R09    R10    R11    R12    R13    R14    R15    R16    R17    R18    R19    R20    R21    R22    R23    R24
# ...
128.00 -9.14 -1133.64 16457.41 56.58 8.43 51.85 52.32 52.73 52.68 52.73 52.39 52.57 52.73 52.59 52.30 52.22 52.07 52.11 52.09 52.04 51.90 51.85 51.95 51.99 52.01 52.41 52.26 52.32 52.52 52.55 52.65 52.70
127.95 -9.14 -1133.64 16519.44 57.26 8.15 51.82 52.30 52.70 52.61 52.65 52.32 52.49 52.68 52.56 52.27 52.24 52.04 52.08 52.09 52.04 51.93 51.82 51.98 52.02 52.01 52.41 52.26 52.32 52.55 52.58 52.65 52.70
127.90 -9.18 -1133.64 16556.85 58.51 8.10 51.85 52.30 52.68 52.63 52.68 52.29 52.47 52.68 52.59 52.27 52.24 52.07 52.11 52.09 52.04 51.90 51.85 51.98 51.99 52.01 52.39 52.23 52.29 52.52 52.53 52.60 52.68
127.85 -9.18 -1133.64 16503.74 60.13 8.10 51.82 52.30 52.70 52.63 52.68 52.32 52.49 52.68 52.59 52.25 52.24 52.07 52.11 52.12 52.04 51.90 51.82 51.98 52.02 52.01 52.39 52.18 52.29 52.52 52.55 52.58 52.70
127.80 -9.18 -1133.64 16476.96 61.80 8.23 51.82 52.29 52.71 52.61 52.68 52.32 52.49 52.71 52.59 52.25 52.24 52.07 52.11 52.12 52.06 51.90 51.82 51.98 51.99 51.98 52.36 52.21 52.27 52.47 52.48 52.58 52.68
127.75 -9.28 -1133.64 16462.20 62.60 8.23 51.82 52.29 52.71 52.61 52.68 52.32 52.52 52.71 52.62 52.30 52.27 52.04 52.11 52.09 52.06 51.90 51.82 51.90 51.99 51.98 52.36 52.21 52.29 52.50 52.50 52.60 52.68
127.70 -9.28 -1133.64 16560.62 64.28 8.23 51.82 52.29 52.73 52.63 52.70 52.34 52.54 52.73 52.64 52.32 52.29 52.09 52.11 52.12 52.06 51.88 51.82 51.90 51.97 51.93 52.34 52.16 52.22 52.45 52.45 52.58 52.65
127.65 -9.28 -1133.64 16501.00 66.26 8.25 51.80 52.29 52.73 52.63 52.68 52.37 52.54 52.73 52.64 52.35 52.27 52.12 52.11 52.12 52.06 51.88 51.80 51.88 51.97 51.93 52.36 52.16 52.24 52.45 52.48 52.56 52.68
127.60 -9.21 -1133.64 16589.75 68.05 8.25 51.77 52.28 52.73 52.66 52.68 52.39 52.61 52.73 52.64 52.37 52.27 52.12 52.13 52.09 52.06 51.85 51.77 51.83 51.91 51.88 52.29 52.16 52.22 52.45 52.48 52.56 52.65
127.55 -9.21 -1133.64 16491.36 69.03 8.07 51.80 52.29 52.73 52.63 52.70 52.37 52.57 52.73 52.67 52.39 52.29 52.12 52.13 52.09 52.04 51.85 51.80 51.83 51.91 51.91 52.31 52.16 52.24 52.42 52.48 52.56 52.65
127.50 -9.21 -1133.64 16425.66 69.79 8.43 51.77 52.27 52.73 52.58 52.63 52.32 52.52 52.73 52.64 52.35 52.31 52.12 52.11 52.09 52.04 51.85 51.77 51.88 51.94 51.91 52.29 52.13 52.19 52.40 52.45 52.56 52.65
127.45 -9.29 -1133.64 16426.31 70.44 8.43 51.80 52.28 52.73 52.58 52.68 52.32 52.49 52.73 52.62 52.35 52.31 52.14 52.13 52.09 52.04 51.85 51.80 51.85 51.94 51.91 52.29 52.16 52.22 52.42 52.48 52.56 52.68
127.40 -9.29 -1133.64 16569.88 70.79 8.20 51.77 52.28 52.76 52.63 52.68 52.34 52.54 52.76 52.64 52.32 52.31 52.12 52.11 52.12 52.06 51.85 51.77 51.88 51.91 51.91 52.31 52.16 52.22 52.42 52.45 52.56 52.65
127.35 -9.29 -1133.64 16655.67 70.61 8.10 51.80 52.29 52.71 52.58 52.65 52.39 52.57 52.71 52.62 52.39 52.29 52.14 52.11 52.09 52.04 51.88 51.80 51.88 51.94 51.93 52.34 52.16 52.22 52.45 52.48 52.56 52.68
127.30 -9.24 -1133.64 16593.04 70.32 8.10 51.80 52.29 52.78 52.63 52.68 52.34 52.54 52.78 52.64 52.35 52.31 52.09 52.11 52.09 52.04 51.88 51.80 51.90 51.94 51.93 52.31 52.16 52.22 52.42 52.48 52.56 52.65
127.25 -9.24 -1133.64 16556.23 70.16 8.41 51.80 52.27 52.68 52.58 52.65 52.32 52.52 52.68 52.59 52.35 52.27 52.12 52.11 52.09 52.04 51.88 51.80 51.88 51.94 51.93 52.31 52.16 52.22 52.42 52.45 52.58 52.65
127.20 -9.24 -1129.15 16526.71 69.49 8.02 51.80 52.28 52.71 52.58 52.63 52.34 52.54 52.71 52.59 52.32 52.29 52.12 52.11 52.09 52.04 51.85 51.80 51.90 51.94 51.96 52.34 52.16 52.22 52.45 52.48 52.53 52.68
127.15 -9.13 -1133.64 16340.99 68.44 8.02 51.80 52.28 52.73 52.58 52.65 52.32 52.52 52.73 52.59 52.32 52.29 52.12 52.11 52.09 52.04 51.88 51.80 51.93 51.97 51.96 52.31 52.18 52.24 52.45 52.48 52.58 52.68
127.10 -9.13 -1133.64 16422.45 67.17 8.20 51.80 52.29 52.71 52.58 52.63 52.32 52.52 52.71 52.59 52.35 52.29 52.12 52.11 52.12 52.06 51.88 51.80 51.95 51.97 51.98 52.34 52.18 52.27 52.47 52.50 52.58 52.68
127.05 -9.13 -1129.15 16537.75 65.86 8.28 51.82 52.29 52.71 52.58 52.65 52.32 52.52 52.71 52.56 52.32 52.29 52.09 52.11 52.12 52.04 51.90 51.82 51.93 51.97 52.01 52.36 52.21 52.27 52.47 52.50 52.58 52.68
127.00 -9.18 -1129.15 16593.94 64.50 8.28 51.82 52.29 52.73 52.58 52.68 52.34 52.54 52.73 52.59 52.32 52.29 52.12 52.13 52.09 52.06 51.90 51.82 51.90 51.97 52.01 52.34 52.18 52.27 52.45 52.48 52.58 52.68
126.95 -9.18 -1129.15 16508.37 63.03 8.35 51.82 52.30 52.73 52.58 52.65 52.29 52.52 52.73 52.62 52.32 52.31 52.14 52.11 52.12 52.06 51.90 51.82 51.95 51.99 52.01 52.36 52.18 52.24 52.45 52.50 52.58 52.68
126.90 -9.18 -1129.15 16517.07 61.77 8.41 51.85 52.31 52.78 52.61 52.68 52.34 52.57 52.78 52.64 52.35 52.31 52.12 52.13 52.12 52.06 51.93 51.85 51.95 51.99 52.01 52.36 52.16 52.22 52.47 52.50 52.60 52.68
126.85 -9.09 -1133.64 16484.37 60.67 8.41 51.85 52.31 52.73 52.56 52.65 52.32 52.52 52.73 52.62 52.35 52.31 52.14 52.13 52.14 52.06 51.96 51.85 51.98 51.99 52.01 52.36 52.18 52.27 52.47 52.50 52.58 52.68
126.80 -9.09 -1133.64 16348.32 59.91 8.17 51.85 52.31 52.76 52.63 52.68 52.39 52.59 52.76 52.62 52.39 52.31 52.14 52.16 52.14 52.09 51.93 51.85 51.98 51.99 52.01 52.34 52.16 52.22 52.45 52.45 52.58 52.65
126.75 -9.09 -1133.64 16418.58 58.89 8.48 51.85 52.31 52.73 52.61 52.68 52.39 52.59 52.73 52.62 52.42 52.31 52.14 52.16 52.14 52.09 51.93 51.85 51.95 51.99 51.98 52.34 52.13 52.22 52.47 52.48 52.58 52.68
126.70 -9.22 -1129.15 16504.26 58.29 8.48 51.85 52.31 52.76 52.61 52.68 52.42 52.61 52.76 52.62 52.42 52.31 52.14 52.16 52.14 52.09 51.93 51.85 51.98 51.97 52.01 52.31 52.13 52.19 52.45 52.45 52.56 52.65
126.65 -9.22 -1129.15 16563.16 58.07 8.23 51.82 52.30 52.73 52.58 52.65 52.37 52.57 52.73 52.62 52.42 52.31 52.14 52.16 52.17 52.09 51.90 51.82 51.93 51.97 51.98 52.29 52.16 52.24 52.42 52.45 52.56 52.65
126.60 -9.22 -1133.64 16470.74 58.08 8.28 51.85 52.31 52.78 52.63 52.68 52.42 52.61 52.78 52.62 52.42 52.31 52.17 52.16 52.14 52.09 51.90 51.85 51.93 51.97 51.98 52.29 52.16 52.22 52.45 52.48 52.56 52.65
126.55 -9.38 -1133.64 16500.44 58.23 8.28 51.82 52.30 52.73 52.58 52.65 52.37 52.59 52.73 52.59 52.42 52.29 52.12 52.16 52.14 52.09 51.90 51.82 51.95 51.97 51.96 52.29 52.13 52.24 52.45 52.48 52.58 52.65
126.50 -9.38 -1133.64 16528.54 57.99 8.56 51.85 52.29 52.71 52.58 52.65 52.34 52.54 52.71 52.59 52.37 52.27 52.12 52.16 52.14 52.09 51.90 51.85 51.93 51.97 52.01 52.29 52.16 52.22 52.45 52.48 52.53 52.65
126.45 -9.38 -1133.64 16449.84 57.98 8.00 51.82 52.29 52.71 52.58 52.65 52.29 52.52 52.71 52.59 52.30 52.31 52.14 52.16 52.14 52.09 51.90 51.82 51.93 51.99 51.98 52.29 52.18 52.24 52.42 52.45 52.56 52.63
126.40 -9.43 -1133.64 16555.02 58.19 8.00 51.85 52.29 52.73 52.58 52.65 52.32 52.54 52.73 52.59 52.30 52.31 52.09 52.16 52.12 52.06 51.90 51.85 51.90 51.97 51.98 52.31 52.16 52.27 52.47 52.48 52.53 52.65
126.35 -9.43 -1133.64 16500.62 58.30 8.23 51.82 52.28 52.66 52.53 52.60 52.32 52.52 52.66 52.56 52.35 52.24 52.09 52.13 52.12 52.09 51.88 51.82 51.88 51.97 51.98 52.29 52.18 52.27 52.47 52.48 52.56 52.63
126.30 -9.43 -1133.64 16550.54 58.24 8.30 51.82 52.28 52.71 52.53 52.63 52.29 52.52 52.71 52.59 52.30 52.29 52.12 52.13 52.09 52.09 51.88 51.82 51.90 51.97 52.01 52.29 52.18 52.24 52.47 52.48 52.53 52.63
126.25 -9.43 -1133.64 16476.55 58.68 8.30 51.82 52.27 52.63 52.53 52.60 52.27 52.47 52.63 52.56 52.32 52.27 52.09 52.13 52.14 52.06 51.90 51.82 51.90 51.97 52.01 52.29 52.23 52.27 52.47 52.45 52.56 52.63
126.20 -9.62 -1133.64 16463.60 58.87 8.41 51.82 52.29 52.73 52.56 52.65 52.32 52.54 52.73 52.59 52.32 52.31 52.09 52.16 52.09 52.06 51.90 51.82 51.90 51.97 51.98 52.29 52.23 52.29 52.47 52.45 52.56 52.63
126.15 -9.62 -1129.15 16553.39 59.38 8.41 51.82 52.28 52.66 52.51 52.58 52.27 52.47 52.66 52.54 52.32 52.27 52.09 52.13 52.12 52.09 51.90 51.82 51.93 51.97 51.98 52.29 52.23 52.27 52.52 52.50 52.56 52.65
126.10 -9.62 -1129.15 16448.02 60.06 8.25 51.82 52.28 52.68 52.53 52.60 52.29 52.52 52.68 52.56 52.32 52.24 52.07 52.13 52.09 52.06 51.90 51.82 51.95 51.94 52.01 52.29 52.23 52.27 52.47 52.48 52.58 52.63
126.05 -9.65 -1133.64 16523.33 61.14 8.00 51.82 52.28 52.66 52.53 52.60 52.27 52.49 52.66 52.54 52.30 52.24 52.09 52.13 52.12 52.09 51.88 51.82 51.93 51.97 52.01 52.29 52.18 52.27 52.50 52.50 52.56 52.65
