~Version Information
VERS.                      2.0: CWLS Log ASCII Standard - VERSION 2.0
WRAP.                       NO: One line per depth step
#Non standard LAS - data should be wrapped
~Well Information Block
STRT.M                  140.00: START DEPTH
STOP.M                   80.00: STOP DEPTH
STEP.M                 -0.0500: STEP
NULL.                -999.2500: NULL VALUE
COMP.                         : COMPANY
WELL.                         : WELL
FLD.                          : FIELD
LOC.                          : LOCATION
DATE.         26 05-38-47 2014: LOG DATE
~Curve Information Block
DEPT.M             0 000 00 00: Depth
LSPD.M/MIN                   0: Line Speed
LTEN.KG                      0: Surface Line Tension
CCL.                        0: Casing Collar Locator
GR.GAPI                     0: Gamma Ray
WTEMP.DEGC                  0: GTC Well Temperature
MNRD.MM                      0: Min Radius
AVRD.MM                      0: Avg Radius
MXRD.MM                      0: Max Radius
R01.MM                       0: Radius 01
R02.MM                       0: Radius 02
R03.MM                       0: Radius 03
R04.MM                       0: Radius 04
R05.MM                       0: Radius 05
R06.MM                       0: Radius 06
R07.MM                       0: Radius 07
R08.MM                       0: Radius 08
R09.MM                       0: Radius 09
R10.MM                       0: Radius 10
R11.MM                       0: Radius 11
R12.MM                       0: Radius 12
R13.MM                       0: Radius 13
R14.MM                       0: Radius 14
R15.MM                       0: Radius 15
R16.MM                       0: Radius 16
R17.MM                       0: Radius 17
R18.MM                       0: Radius 18
R19.MM                       0: Radius 19
R20.MM                       0: Radius 20
R21.MM                       0: Radius 21
R22.MM                       0: Radius 22
R23.MM                       0: Radius 23
R24.MM                       0: Radius 24
~A  Depth   LSPD LTEN     CCL       GR    WTemp MNRD   AVRD   MXRD    R01    R02    R03    R04    R05    R06    R07    R08    R09    R10    R11    R12    R13    R14    R15    R16    R17    R18    R19    R20    R21    R22    R23    R24
# ...
106.00 -9.78 -1129.15 16496.52 125.38 7.79 52.00 52.58 53.23 53.23 52.99 52.78 52.72 52.67 52.63 52.49 52.38 52.35 52.27 52.28 52.41 52.26 52.11 52.00 52.19 52.41 52.52 52.63 52.43 52.82 53.05 53.13 53.23
105.95 -9.83 -1133.64 16442.47 125.39 7.87 51.97 52.57 53.20 53.20 53.01 52.80 52.77 52.70 52.63 52.52 52.40 52.39 52.27 52.28 52.41 52.26 52.11 51.97 52.14 52.34 52.45 52.58 52.35 52.74 53.00 53.13 53.18
105.90 -9.83 -1133.64 16454.41 125.28 7.87 51.97 52.56 53.20 53.20 52.99 52.76 52.77 52.72 52.68 52.54 52.45 52.42 52.30 52.33 52.44 52.26 52.08 51.97 52.09 52.27 52.35 52.53 52.31 52.72 52.98 53.10 53.18
105.85 -9.83 -1133.64 16500.39 124.90 8.02 51.97 52.55 53.21 53.20 53.01 52.71 52.72 52.72 52.68 52.49 52.47 52.35 52.27 52.31 52.41 52.26 52.08 51.97 52.09 52.29 52.37 52.51 52.28 52.72 52.95 53.10 53.21
105.80 -9.81 -1133.64 16546.51 124.77 7.79 51.87 52.53 53.30 53.30 53.04 52.80 52.79 52.70 52.66 52.52 52.38 52.32 52.20 52.21 52.39 52.16 51.99 51.87 52.04 52.24 52.35 52.43 52.21 52.70 52.98 53.08 53.26
105.75 -9.81 -1133.64 16468.35 123.75 7.79 51.90 52.51 53.28 53.28 53.04 52.78 52.77 52.67 52.63 52.47 52.30 52.27 52.13 52.18 52.34 52.16 51.96 51.90 52.01 52.24 52.35 52.46 52.21 52.65 52.95 53.10 53.26
105.70 -9.81 -1129.15 16535.02 122.77 7.74 51.78 52.51 53.11 53.11 52.82 52.83 52.79 52.48 52.53 52.57 52.30 52.37 52.30 52.21 52.44 52.49 52.23 51.78 52.36 52.27 52.45 52.38 52.11 52.63 52.81 53.10 52.89
105.65 -9.81 -1133.64 16477.07 122.22 7.71 51.92 52.52 53.28 53.28 53.04 52.80 52.79 52.72 52.63 52.52 52.35 52.30 52.13 52.14 52.31 52.11 51.94 51.92 51.99 52.27 52.40 52.46 52.18 52.72 53.00 53.10 53.26
105.60 -9.73 -1133.64 16482.04 122.54 7.71 51.94 52.52 53.23 53.23 53.04 52.76 52.79 52.72 52.63 52.52 52.35 52.30 52.15 52.16 52.31 52.14 51.94 51.95 51.99 52.27 52.40 52.51 52.23 52.72 52.98 53.13 53.23
105.55 -9.73 -1129.15 16476.23 122.68 7.51 51.96 52.54 53.25 53.25 53.04 52.73 52.74 52.75 52.68 52.49 52.42 52.30 52.15 52.16 52.31 52.16 51.96 52.00 52.09 52.34 52.47 52.55 52.31 52.74 53.00 53.13 53.23
105.50 -9.73 -1133.64 16494.82 123.26 7.51 51.99 52.54 53.23 53.18 52.99 52.68 52.70 52.70 52.63 52.45 52.38 52.30 52.15 52.18 52.34 52.19 51.99 52.00 52.09 52.39 52.52 52.63 52.35 52.79 53.08 53.15 53.23
105.45 -9.83 -1133.64 16526.41 124.68 7.71 52.02 52.57 53.23 53.20 53.01 52.73 52.74 52.75 52.68 52.52 52.40 52.30 52.18 52.18 52.34 52.21 52.04 52.02 52.14 52.41 52.54 52.58 52.38 52.82 53.08 53.13 53.23
105.40 -9.83 -1133.64 16422.66 127.28 7.71 52.01 52.55 53.26 53.18 52.97 52.71 52.70 52.70 52.61 52.47 52.38 52.32 52.18 52.18 52.36 52.21 52.01 52.02 52.11 52.39 52.54 52.60 52.35 52.82 53.08 53.15 53.26
105.35 -9.83 -1133.64 16527.39 130.29 7.71 51.99 52.57 53.28 53.25 53.04 52.76 52.74 52.75 52.66 52.47 52.38 52.27 52.15 52.18 52.34 52.16 51.99 52.00 52.14 52.41 52.57 52.65 52.43 52.84 53.10 53.20 53.28
105.30 -9.78 -1133.64 16552.98 133.40 7.79 52.00 52.56 53.28 53.20 52.97 52.71 52.72 52.67 52.58 52.47 52.33 52.30 52.18 52.18 52.34 52.16 52.01 52.00 52.11 52.39 52.57 52.65 52.48 52.84 53.10 53.18 53.28
105.25 -9.78 -1133.64 16462.23 137.45 7.71 52.00 52.55 53.28 53.18 52.99 52.73 52.70 52.65 52.58 52.45 52.33 52.27 52.18 52.21 52.36 52.16 52.01 52.00 52.11 52.34 52.54 52.60 52.40 52.84 53.08 53.15 53.28
105.20 -9.78 -1133.64 16474.39 141.51 7.71 51.99 52.54 53.26 53.18 52.99 52.73 52.70 52.65 52.58 52.42 52.30 52.27 52.15 52.18 52.34 52.16 51.99 52.02 52.11 52.36 52.57 52.60 52.43 52.82 53.08 53.13 53.26
105.15 -9.73 -1133.64 16522.51 144.95 7.79 52.01 52.54 53.23 53.18 52.97 52.71 52.67 52.63 52.58 52.42 52.28 52.25 52.13 52.18 52.34 52.19 52.01 52.07 52.16 52.41 52.57 52.63 52.48 52.79 53.05 53.13 53.23
105.10 -9.73 -1129.15 16561.76 147.03 7.56 52.04 52.55 53.26 53.16 52.97 52.73 52.70 52.67 52.55 52.42 52.30 52.25 52.15 52.18 52.34 52.19 52.04 52.07 52.19 52.39 52.57 52.58 52.50 52.82 53.05 53.13 53.26
105.05 -9.73 -1138.13 16530.93 148.67 7.56 52.06 52.56 53.26 53.20 53.01 52.78 52.74 52.70 52.58 52.45 52.30 52.23 52.11 52.18 52.34 52.19 52.06 52.12 52.21 52.39 52.59 52.60 52.45 52.82 53.05 53.10 53.26
105.00 -9.73 -1133.64 16479.82 149.50 7.66 52.08 52.56 53.21 53.20 52.99 52.78 52.72 52.65 52.58 52.45 52.28 52.20 52.11 52.16 52.34 52.19 52.08 52.12 52.24 52.46 52.64 52.63 52.57 52.79 53.05 53.10 53.21
104.95 -9.82 -1133.64 16520.48 148.33 7.58 52.06 52.57 53.26 53.18 52.99 52.76 52.70 52.65 52.55 52.40 52.26 52.18 52.06 52.16 52.34 52.16 52.06 52.12 52.26 52.49 52.69 52.70 52.65 52.84 53.08 53.15 53.26
104.90 -9.82 -1133.64 16489.06 145.83 7.58 52.06 52.55 53.26 53.16 52.97 52.68 52.60 52.63 52.55 52.32 52.23 52.15 52.06 52.16 52.31 52.16 52.06 52.15 52.26 52.51 52.69 52.72 52.57 52.84 53.08 53.15 53.26
104.85 -9.82 -1133.64 16531.78 142.99 7.48 52.03 52.56 53.23 53.18 52.99 52.66 52.62 52.58 52.50 52.32 52.16 52.13 52.03 52.16 52.31 52.19 52.06 52.17 52.29 52.53 52.74 52.75 52.62 52.89 53.12 53.15 53.23
104.80 -9.74 -1133.64 16521.81 139.29 7.58 52.01 52.55 53.23 53.13 52.94 52.59 52.53 52.51 52.48 52.23 52.14 52.06 52.01 52.14 52.31 52.16 52.06 52.22 52.34 52.58 52.79 52.77 52.72 52.91 53.12 53.18 53.23
104.75 -9.74 -1133.64 16498.94 134.84 7.58 51.99 52.53 53.26 53.13 52.89 52.56 52.46 52.46 52.43 52.18 52.09 52.01 51.99 52.11 52.29 52.16 52.06 52.19 52.34 52.58 52.81 52.77 52.67 52.91 53.15 53.20 53.26
104.70 -9.74 -1129.15 16396.06 130.71 7.51 51.96 52.51 53.23 53.11 52.89 52.54 52.46 52.41 52.40 52.13 52.04 51.99 51.96 52.06 52.29 52.16 52.06 52.19 52.34 52.56 52.81 52.75 52.65 52.96 53.15 53.18 53.23
104.65 -9.73 -1133.64 16585.00 126.48 7.87 51.94 52.50 53.23 53.06 52.84 52.51 52.41 52.36 52.33 52.11 51.97 51.99 51.94 52.06 52.29 52.16 52.08 52.24 52.36 52.61 52.81 52.77 52.65 52.91 53.15 53.15 53.23
104.60 -9.73 -1133.64 16550.96 122.64 7.87 51.91 52.51 53.23 53.08 52.89 52.54 52.46 52.41 52.35 52.06 52.04 51.96 51.91 52.06 52.29 52.16 52.08 52.22 52.38 52.61 52.83 52.77 52.65 52.91 53.12 53.18 53.23
104.55 -9.73 -1133.64 16494.63 118.98 7.79 51.94 52.53 53.23 53.11 52.87 52.59 52.50 52.41 52.35 52.15 52.02 51.99 51.94 52.09 52.26 52.19 52.11 52.27 52.43 52.63 52.88 52.77 52.67 52.96 53.17 53.15 53.23
104.50 -9.73 -1133.64 16522.66 116.26 7.66 51.96 52.55 53.21 53.13 52.89 52.59 52.50 52.43 52.35 52.18 52.02 52.01 51.96 52.09 52.29 52.21 52.11 52.29 52.43 52.66 52.88 52.85 52.72 52.98 53.17 53.20 53.21
104.45 -9.83 -1133.64 16530.68 113.79 7.66 51.96 52.56 53.23 53.13 52.89 52.61 52.50 52.46 52.35 52.18 52.04 52.03 51.96 52.11 52.31 52.19 52.11 52.29 52.43 52.68 52.91 52.87 52.77 53.03 53.22 53.22 53.23
104.40 -9.83 -1133.64 16482.58 112.18 7.38 51.99 52.58 53.26 53.13 52.87 52.59 52.50 52.43 52.38 52.18 52.06 52.06 51.99 52.11 52.29 52.19 52.11 52.34 52.48 52.71 52.93 52.89 52.79 53.08 53.25 53.20 53.26
104.35 -9.83 -1133.64 16463.80 111.03 7.64 52.01 52.59 53.22 53.11 52.87 52.59 52.53 52.48 52.38 52.23 52.14 52.11 52.01 52.14 52.34 52.21 52.13 52.37 52.51 52.73 52.96 52.92 52.79 53.05 53.22 53.20 53.21
104.30 -9.77 -1133.64 16513.09 110.54 7.64 52.06 52.60 53.23 53.11 52.89 52.61 52.55 52.53 52.40 52.25 52.18 52.13 52.06 52.16 52.36 52.24 52.16 52.29 52.48 52.71 52.96 52.89 52.77 53.05 53.22 53.20 53.23
104.25 -9.77 -1133.64 16577.62 109.69 7.58 52.06 52.59 53.23 53.06 52.84 52.61 52.50 52.48 52.38 52.23 52.16 52.13 52.06 52.16 52.36 52.24 52.18 52.32 52.48 52.71 52.96 52.87 52.74 53.03 53.22 53.15 53.23
104.20 -9.77 -1129.15 16456.28 108.72 7.69 52.06 52.58 53.23 53.08 52.87 52.61 52.53 52.53 52.43 52.23 52.18 52.13 52.06 52.18 52.39 52.24 52.16 52.27 52.46 52.61 52.88 52.80 52.67 53.00 53.17 53.15 53.23
104.15 -9.77 -1133.64 16527.69 108.20 7.69 52.03 52.55 53.38 53.16 52.97 52.71 52.58 52.53 52.40 52.30 52.09 52.13 52.03 52.18 52.34 52.06 52.04 52.17 52.26 52.46 52.69 52.70 52.62 53.03 53.20 53.22 53.38
104.10 -9.77 -1133.64 16548.63 107.09 7.89 52.06 52.55 53.30 53.16 52.94 52.64 52.48 52.43 52.35 52.25 52.14 52.13 52.08 52.21 52.36 52.16 52.06 52.22 52.29 52.49 52.74 52.70 52.62 53.03 53.25 53.22 53.30
104.05 -9.77 -1133.64 16458.75 105.93 7.71 52.06 52.57 53.33 53.20 52.99 52.71 52.60 52.55 52.53 52.32 52.18 52.13 52.08 52.18 52.36 52.14 52.06 52.12 52.29 52.44 52.71 52.65 52.52 53.00 53.25 53.25 53.33
