~Version Information
VERS.                      2.0: CWLS Log ASCII Standard - VERSION 2.0
WRAP.                       NO: One line per depth step
#Non standard LAS - data should be wrapped
~Well Information Block
STRT.M                  140.00: START DEPTH
STOP.M                   80.00: STOP DEPTH
STEP.M                 -0.0500: STEP
NULL.                -999.2500: NULL VALUE
COMP.                         : COMPANY
WELL.                         : WELL
FLD.                          : FIELD
LOC.                          : LOCATION
DATE.         26 05-38-47 2014: LOG DATE
~Curve Information Block
DEPT.M             0 000 00 00: Depth
LSPD.M/MIN                   0: Line Speed
LTEN.KG                      0: Surface Line Tension
CCL.                        0: Casing Collar Locator
GR.GAPI                     0: Gamma Ray
WTEMP.DEGC                  0: GTC Well Temperature
MNRD.MM                      0: Min Radius
AVRD.MM                      0: Avg Radius
MXRD.MM                      0: Max Radius
R01.MM                       0: Radius 01
R02.MM                       0: Radius 02
R03.MM                       0: Radius 03
R04.MM                       0: Radius 04
R05.MM                       0: Radius 05
R06.MM                       0: Radius 06
R07.MM                       0: Radius 07
R08.MM                       0: Radius 08
R09.MM                       0: Radius 09
R10.MM                       0: Radius 10
R11.MM                       0: Radius 11
R12.MM                       0: Radius 12
R13.MM                       0: Radius 13
R14.MM                       0: Radius 14
R15.MM                       0: Radius 15
R16.MM                       0: Radius 16
R17.MM                       0: Radius 17
R18.MM                       0: Radius 18
R19.MM                       0: Radius 19
R20.MM                       0: Radius 20
R21.MM                       0: Radius 21
R22.MM                       0: Radius 22
R23.MM                       0: Radius 23
R24.MM                       0: Radius 24
~A  Depth   LSPD LTEN     CCL       GR    WTemp MNRD   AVRD   MXRD    R01    R02    R03    R04    R05    R06    R07    R08    R09    R10    R11    R12    R13    R14    R15    R16    R17    R18    R19    R20    R21    R22    R23    R24
# ...
102.00 -9.84 -1133.64 16542.31 97.77 7.53 52.81 53.29 53.88 53.81 53.88 53.62 53.68 53.68 53.46 53.27 53.34 53.16 53.02 53.03 52.89 52.89 52.85 52.81 52.93 53.19 53.22 53.09 53.13 53.31 53.49 53.58 53.69
101.95 -9.84 -1133.64 16491.25 97.76 7.71 52.84 53.30 53.88 53.81 53.88 53.60 53.63 53.63 53.49 53.39 53.36 53.16 53.02 53.01 52.89 52.84 52.85 52.84 52.93 53.22 53.27 53.19 53.20 53.31 53.47 53.58 53.67
101.90 -9.84 -1129.15 16500.31 98.64 7.71 52.81 53.31 53.88 53.83 53.88 53.60 53.61 53.65 53.49 53.37 53.36 53.18 53.05 53.03 52.89 52.81 52.83 52.81 52.96 53.19 53.25 53.16 53.20 53.31 53.49 53.63 53.74
101.85 -9.78 -1133.64 16533.54 99.92 7.71 52.79 53.30 53.85 53.83 53.85 53.60 53.61 53.61 53.41 53.27 53.34 53.14 53.00 53.01 52.87 52.79 52.81 52.81 52.96 53.24 53.27 53.19 53.23 53.38 53.54 53.63 53.76
101.80 -9.78 -1133.64 16500.29 101.87 7.46 52.79 53.31 53.88 53.86 53.88 53.55 53.58 53.61 53.44 53.27 53.39 53.18 53.05 53.03 52.87 52.84 52.83 52.79 52.93 53.22 53.27 53.21 53.23 53.41 53.58 53.67 53.79
101.75 -9.78 -1133.64 16515.92 104.13 7.61 52.81 53.32 53.88 53.88 53.88 53.60 53.61 53.63 53.44 53.25 53.34 53.14 53.02 53.03 52.92 52.86 52.83 52.81 52.96 53.24 53.27 53.21 53.25 53.41 53.58 53.70 53.79
101.70 -9.89 -1129.15 16503.14 106.77 7.61 52.81 53.31 53.88 53.86 53.88 53.55 53.56 53.58 53.41 53.13 53.32 53.16 53.05 53.03 52.92 52.84 52.81 52.81 52.93 53.22 53.32 53.26 53.30 53.45 53.63 53.72 53.83
101.65 -9.89 -1133.64 16556.09 109.41 7.51 52.81 53.32 53.93 53.93 53.92 53.62 53.58 53.61 53.39 53.15 53.32 53.14 53.02 53.03 52.92 52.81 52.81 52.81 52.96 53.22 53.27 53.24 53.28 53.43 53.61 53.74 53.86
101.60 -9.89 -1129.15 16489.25 111.91 7.30 52.78 53.33 53.95 53.95 53.92 53.64 53.65 53.61 53.44 53.20 53.34 53.18 53.02 53.03 52.89 52.79 52.78 52.84 52.96 53.19 53.27 53.26 53.30 53.48 53.65 53.74 53.86
101.55 -9.83 -1133.64 16481.85 114.24 7.30 52.83 53.33 53.93 53.93 53.92 53.64 53.65 53.65 53.44 53.03 53.39 53.16 53.02 53.03 52.92 52.84 52.83 52.84 52.96 53.22 53.27 53.21 53.28 53.43 53.63 53.70 53.83
101.50 -9.83 -1133.64 16500.45 117.07 7.51 52.83 53.32 53.90 53.90 53.90 53.62 53.65 53.65 53.44 52.98 53.36 53.18 53.02 53.01 52.89 52.86 52.83 52.86 52.96 53.22 53.27 53.24 53.28 53.43 53.58 53.70 53.83
101.45 -9.83 -1133.64 16536.28 118.90 7.58 52.83 53.33 53.97 53.97 53.95 53.67 53.65 53.68 53.44 53.00 53.36 53.21 53.05 53.03 52.89 52.84 52.83 52.84 52.96 53.22 53.27 53.19 53.23 53.41 53.58 53.72 53.88
101.40 -9.83 -1133.64 16468.33 119.78 7.58 52.81 53.33 53.97 53.93 53.97 53.69 53.68 53.70 53.44 52.93 53.41 53.23 53.02 53.01 52.89 52.81 52.83 52.86 52.98 53.24 53.27 53.21 53.25 53.41 53.58 53.67 53.83
101.35 -9.74 -1133.64 16484.10 120.08 7.69 52.84 53.32 53.95 53.90 53.95 53.67 53.70 53.70 53.46 52.93 53.44 53.23 53.05 53.06 52.89 52.84 52.85 52.89 52.98 53.19 53.25 53.14 53.18 53.41 53.58 53.67 53.84
101.30 -9.74 -1133.64 16520.77 120.12 7.74 52.89 53.31 53.88 53.83 53.88 53.62 53.68 53.65 53.39 52.93 53.34 53.18 53.05 53.06 52.94 52.89 52.90 52.91 52.98 53.24 53.27 53.21 53.23 53.38 53.54 53.67 53.76
101.25 -9.74 -1133.64 16482.94 119.65 7.74 52.86 53.32 53.88 53.88 53.88 53.64 53.65 53.63 53.39 52.91 53.34 53.21 53.05 53.06 52.92 52.86 52.90 52.89 52.98 53.24 53.30 53.21 53.23 53.41 53.58 53.70 53.81
101.20 -9.84 -1129.15 16484.18 118.72 7.56 52.86 53.32 53.93 53.93 53.92 53.69 53.68 53.63 53.41 52.91 53.36 53.21 53.05 53.08 52.94 52.86 52.88 52.89 53.01 53.24 53.30 53.14 53.20 53.38 53.56 53.63 53.81
101.15 -9.84 -1133.64 16552.49 117.63 7.64 52.85 53.32 53.90 53.86 53.90 53.64 53.68 53.63 53.41 53.05 53.39 53.23 53.05 53.03 52.92 52.89 52.85 52.89 52.98 53.22 53.27 53.19 53.23 53.38 53.54 53.65 53.74
101.10 -9.84 -1133.64 16508.18 117.00 7.64 52.89 53.31 53.85 53.81 53.85 53.62 53.68 53.65 53.39 52.98 53.34 53.21 53.07 53.08 52.94 52.91 52.90 52.89 52.96 53.22 53.27 53.19 53.20 53.41 53.54 53.63 53.74
101.05 -9.78 -1133.64 16529.58 116.17 7.58 52.88 53.33 53.88 53.83 53.88 53.60 53.68 53.65 53.44 53.03 53.44 53.23 53.07 53.08 52.97 52.89 52.88 52.89 52.98 53.22 53.30 53.24 53.25 53.41 53.56 53.65 53.74
101.00 -9.78 -1133.64 16499.66 115.34 7.48 52.88 53.34 53.95 53.93 53.95 53.64 53.65 53.65 53.44 53.17 53.44 53.23 53.10 53.08 52.97 52.91 52.88 52.91 53.01 53.22 53.30 53.16 53.20 53.38 53.54 53.63 53.81
100.95 -9.78 -1133.64 16500.34 114.71 7.48 52.86 53.33 53.90 53.83 53.90 53.60 53.65 53.65 53.44 53.17 53.46 53.26 53.10 53.06 52.92 52.86 52.88 52.89 53.01 53.24 53.27 53.21 53.25 53.36 53.51 53.60 53.74
100.90 -9.77 -1129.15 16500.83 114.22 7.56 52.90 53.33 53.90 53.86 53.90 53.60 53.65 53.63 53.44 53.17 53.46 53.23 53.10 53.11 52.97 52.91 52.90 52.91 52.98 53.24 53.27 53.19 53.18 53.36 53.49 53.60 53.74
100.85 -9.77 -1133.64 16507.44 113.47 7.38 52.90 53.34 53.90 53.86 53.90 53.62 53.68 53.63 53.44 53.32 53.41 53.23 53.10 53.11 52.97 52.91 52.90 52.91 52.98 53.26 53.30 53.21 53.23 53.36 53.51 53.60 53.72
100.80 -9.77 -1129.15 16547.83 113.17 7.38 52.89 53.33 53.85 53.81 53.85 53.60 53.63 53.61 53.41 53.34 53.41 53.26 53.12 53.13 52.97 52.91 52.90 52.89 52.98 53.19 53.27 53.16 53.18 53.36 53.51 53.60 53.76
100.75 -9.77 -1133.64 16484.43 113.09 7.69 52.84 53.33 53.90 53.86 53.90 53.67 53.68 53.68 53.44 53.30 53.44 53.26 53.10 53.11 52.97 52.86 52.88 52.84 52.98 53.19 53.22 53.16 53.18 53.36 53.51 53.63 53.76
100.70 -9.88 -1133.64 16516.94 113.13 7.69 52.84 53.34 53.90 53.86 53.90 53.62 53.68 53.68 53.49 53.34 53.53 53.30 53.12 53.08 52.97 52.89 52.85 52.84 52.98 53.19 53.22 53.11 53.16 53.36 53.54 53.60 53.76
100.65 -9.88 -1133.64 16464.98 113.05 7.38 52.89 53.34 53.90 53.83 53.90 53.64 53.70 53.68 53.46 53.30 53.49 53.26 53.12 53.11 52.99 52.94 52.90 52.89 52.98 53.22 53.22 53.14 53.18 53.34 53.49 53.60 53.72
100.60 -9.88 -1133.64 16512.43 112.36 7.69 52.86 53.32 53.85 53.81 53.85 53.64 53.66 53.61 53.41 53.25 53.41 53.26 53.12 53.11 52.97 52.89 52.88 52.86 52.98 53.22 53.27 53.16 53.18 53.36 53.51 53.60 53.74
100.55 -9.79 -1129.15 16464.94 111.64 7.69 52.85 53.32 53.92 53.88 53.92 53.62 53.63 53.65 53.44 53.20 53.44 53.23 53.10 53.06 52.94 52.89 52.85 52.91 52.98 53.19 53.20 53.11 53.16 53.36 53.51 53.65 53.81
100.50 -9.79 -1129.15 16483.27 110.99 7.58 52.81 53.31 53.88 53.83 53.88 53.60 53.63 53.63 53.41 53.13 53.41 53.21 53.02 53.03 52.89 52.81 52.83 52.86 53.01 53.22 53.25 53.14 53.18 53.41 53.56 53.63 53.76
100.45 -9.79 -1133.64 16536.19 110.57 7.76 52.84 53.30 53.88 53.83 53.88 53.64 53.68 53.63 53.36 53.00 53.34 53.18 53.05 53.01 52.89 52.86 52.85 52.84 52.98 53.19 53.22 53.14 53.18 53.38 53.54 53.65 53.76
100.40 -9.75 -1133.64 16537.62 110.78 7.76 52.83 53.30 53.88 53.83 53.88 53.62 53.66 53.61 53.36 53.03 53.32 53.18 53.02 52.98 52.89 52.84 52.83 52.86 52.98 53.24 53.25 53.16 53.23 53.41 53.56 53.65 53.76
100.35 -9.75 -1133.64 16456.85 111.51 7.51 52.81 53.29 53.93 53.93 53.92 53.64 53.66 53.63 53.39 52.98 53.37 53.14 53.00 52.98 52.87 52.81 52.81 52.84 52.96 53.14 53.15 53.11 53.18 53.43 53.58 53.70 53.86
100.30 -9.75 -1133.64 16478.80 112.04 7.43 52.74 53.29 53.92 53.90 53.92 53.64 53.66 53.63 53.36 52.98 53.34 53.16 52.98 52.96 52.84 52.74 52.76 52.81 52.98 53.17 53.20 53.11 53.20 53.41 53.58 53.70 53.84
100.25 -9.75 -1129.15 16493.02 112.35 7.43 52.81 53.29 53.92 53.90 53.92 53.62 53.66 53.63 53.34 52.96 53.34 53.16 53.02 53.01 52.89 52.84 52.81 52.84 52.96 53.17 53.17 53.11 53.18 53.41 53.58 53.70 53.81
100.20 -9.84 -1133.64 16552.47 112.88 7.46 52.88 53.28 53.88 53.86 53.88 53.60 53.66 53.56 53.29 52.93 53.27 53.11 53.00 53.01 52.92 52.89 52.88 52.89 52.98 53.17 53.17 53.11 53.18 53.38 53.58 53.70 53.79
100.15 -9.84 -1133.64 16549.88 113.53 7.58 52.85 53.28 53.88 53.86 53.88 53.60 53.61 53.51 53.24 52.98 53.27 53.18 53.05 53.03 52.92 52.86 52.85 52.89 52.98 53.17 53.15 53.14 53.18 53.43 53.58 53.70 53.79
100.10 -9.84 -1133.64 16488.18 114.30 7.58 52.83 53.29 53.95 53.95 53.95 53.67 53.66 53.61 53.26 52.98 53.34 53.14 53.02 52.98 52.89 52.84 52.83 52.86 53.01 53.14 53.10 53.09 53.18 53.41 53.58 53.70 53.84
100.05 -9.78 -1133.64 16465.72 115.51 7.41 52.81 53.28 53.90 53.88 53.90 53.57 53.63 53.58 53.26 52.98 53.34 53.18 53.05 53.01 52.89 52.86 52.83 52.81 52.98 53.14 53.10 53.07 53.16 53.43 53.58 53.67 53.81
