~Version Information
VERS.                      2.0: CWLS Log ASCII Standard - VERSION 2.0
WRAP.                       NO: One line per depth step
#Non standard LAS - data should be wrapped
~Well Information Block
STRT.M                  140.00: START DEPTH
STOP.M                   80.00: STOP DEPTH
STEP.M                 -0.0500: STEP
NULL.                -999.2500: NULL VALUE
COMP.                         : COMPANY
WELL.                         : WELL
FLD.                          : FIELD
LOC.                          : LOCATION
DATE.         26 05-38-47 2014: LOG DATE
~Curve Information Block
DEPT.M             0 000 00 00: Depth
LSPD.M/MIN                   0: Line Speed
LTEN.KG                      0: Surface Line Tension
CCL.                        0: Casing Collar Locator
GR.GAPI                     0: Gamma Ray
WTEMP.DEGC                  0: GTC Well Temperature
MNRD.MM                      0: Min Radius
AVRD.MM                      0: Avg Radius
MXRD.MM                      0: Max Radius
R01.MM                       0: Radius 01
R02.MM                       0: Radius 02
R03.MM                       0: Radius 03
R04.MM                       0: Radius 04
R05.MM                       0: Radius 05
R06.MM                       0: Radius 06
R07.MM                       0: Radius 07
R08.MM                       0: Radius 08
R09.MM                       0: Radius 09
R10.MM                       0: Radius 10
R11.MM                       0: Radius 11
R12.MM                       0: Radius 12
R13.MM                       0: Radius 13
R14.MM                       0: Radius 14
R15.MM                       0: Radius 15
R16.MM                       0: Radius 16
R17.MM                       0: Radius 17
R18.MM                       0: Radius 18
R19.MM                       0: Radius 19
R20.MM                       0: Radius 20
R21.MM                       0: Radius 21
R22.MM                       0: Radius 22
R23.MM                       0: Radius 23
R24.MM                       0: Radius 24
~A  Depth   LSPD LTEN     CCL       GR    WTemp MNRD   AVRD   MXRD    R01    R02    R03    R04    R05    R06    R07    R08    R09    R10    R11    R12    R13    R14    R15    R16    R17    R18    R19    R20    R21    R22    R23    R24
# ...
82.00 -9.87 -1133.64 16519.18 104.71 6.79 52.44 53.09 53.81 53.81 53.69 53.36 52.94 53.08 53.01 53.01 52.96 52.90 52.66 52.50 52.44 52.76 52.90 52.86 52.64 52.78 53.01 53.36 53.43 53.67 53.49 53.46 53.53
81.95 -9.87 -1133.64 16454.25 105.73 7.07 52.39 53.11 53.88 53.88 53.78 53.41 52.94 53.11 53.06 53.03 53.01 52.92 52.64 52.48 52.39 52.79 52.90 52.91 52.61 52.78 53.01 53.33 53.43 53.67 53.49 53.46 53.55
81.90 -9.87 -1129.15 16497.24 106.34 7.07 52.41 53.10 53.86 53.86 53.76 53.43 52.96 53.06 53.01 53.08 52.93 52.90 52.64 52.48 52.41 52.79 52.90 52.89 52.61 52.80 53.03 53.33 53.45 53.64 53.49 53.49 53.53
81.85 -9.83 -1133.64 16495.01 107.25 7.00 52.39 53.11 53.90 53.90 53.81 53.43 52.96 53.08 53.04 53.05 52.93 52.92 52.64 52.48 52.39 52.79 52.90 52.86 52.59 52.78 53.06 53.36 53.47 53.67 53.51 53.51 53.55
81.80 -9.83 -1133.64 16481.69 108.90 7.02 52.41 53.12 53.90 53.90 53.78 53.43 52.99 53.13 53.06 53.05 52.98 52.92 52.62 52.48 52.41 52.79 52.90 52.86 52.61 52.78 53.06 53.36 53.47 53.67 53.51 53.51 53.53
81.75 -9.83 -1133.64 16453.95 109.77 7.02 52.39 53.12 53.90 53.90 53.81 53.50 53.04 53.11 53.06 53.15 52.96 52.90 52.62 52.48 52.39 52.79 52.88 52.81 52.61 52.78 53.03 53.38 53.47 53.67 53.51 53.51 53.53
81.70 -9.93 -1133.64 16510.41 112.07 6.74 52.39 53.12 53.90 53.90 53.83 53.48 53.04 53.18 53.11 53.15 52.98 52.95 52.62 52.45 52.39 52.76 52.88 52.79 52.59 52.75 53.03 53.36 53.47 53.67 53.49 53.51 53.53
81.65 -9.93 -1133.64 16514.39 113.73 6.74 52.39 53.11 53.86 53.86 53.81 53.45 53.01 53.18 53.14 53.13 53.03 52.92 52.64 52.45 52.39 52.76 52.86 52.79 52.56 52.73 53.01 53.33 53.45 53.67 53.47 53.49 53.53
81.60 -9.93 -1133.64 16495.53 114.56 6.76 52.39 53.10 53.83 53.83 53.78 53.41 52.99 53.16 53.11 53.10 53.03 52.92 52.62 52.45 52.39 52.74 52.83 52.76 52.56 52.73 53.03 53.36 53.45 53.64 53.47 53.49 53.50
81.55 -9.86 -1133.64 16464.10 115.07 6.97 52.39 53.10 53.81 53.81 53.74 53.38 52.94 53.08 53.09 53.15 52.98 52.90 52.62 52.45 52.39 52.76 52.86 52.81 52.56 52.75 53.06 53.38 53.47 53.64 53.47 53.49 53.50
81.50 -9.86 -1129.15 16539.68 115.85 6.97 52.41 53.10 53.78 53.78 53.74 53.33 52.92 53.08 53.09 53.05 53.05 52.90 52.62 52.50 52.41 52.79 52.88 52.86 52.59 52.78 53.08 53.38 53.47 53.67 53.44 53.46 53.50
81.45 -9.86 -1129.15 16504.40 115.84 7.02 52.41 53.09 53.74 53.74 53.69 53.31 52.84 53.04 53.04 53.05 53.01 52.92 52.62 52.48 52.41 52.79 52.88 52.86 52.56 52.78 53.10 53.41 53.50 53.67 53.44 53.49 53.53
81.40 -9.81 -1129.15 16468.54 115.54 6.94 52.41 53.09 53.74 53.74 53.67 53.26 52.82 52.96 52.99 53.03 52.93 52.90 52.59 52.50 52.41 52.76 52.88 52.86 52.56 52.80 53.15 53.43 53.52 53.69 53.51 53.51 53.55
81.35 -9.81 -1133.64 16472.05 114.21 6.94 52.41 53.09 53.76 53.76 53.64 53.26 52.82 52.94 52.96 53.05 52.91 52.90 52.57 52.48 52.41 52.79 52.88 52.86 52.61 52.80 53.15 53.46 53.55 53.69 53.51 53.53 53.55
81.30 -9.81 -1133.64 16516.55 112.50 7.05 52.44 53.11 53.83 53.83 53.71 53.31 52.87 53.04 53.04 53.03 52.96 52.88 52.59 52.48 52.44 52.81 52.90 52.91 52.59 52.83 53.15 53.46 53.55 53.69 53.49 53.56 53.55
81.25 -9.81 -1133.64 16494.53 110.34 6.92 52.41 53.11 53.83 53.83 53.69 53.33 52.87 52.96 52.99 53.05 52.89 52.88 52.57 52.48 52.41 52.84 52.93 52.91 52.61 52.85 53.18 53.48 53.55 53.69 53.49 53.58 53.57
81.20 -9.88 -1133.64 16472.49 107.96 6.92 52.41 53.11 53.81 53.81 53.69 53.26 52.84 52.96 52.96 53.01 52.89 52.83 52.54 52.45 52.41 52.81 52.90 52.94 52.61 52.88 53.25 53.50 53.59 53.71 53.54 53.60 53.55
81.15 -9.88 -1129.15 16497.56 105.55 6.79 52.40 53.13 53.86 53.86 53.76 53.31 52.94 53.04 53.04 53.01 52.89 52.78 52.47 52.40 52.41 52.79 52.88 52.89 52.61 52.90 53.30 53.55 53.62 53.78 53.59 53.63 53.62
81.10 -9.88 -1133.64 16502.31 103.80 6.66 52.39 53.12 53.86 53.86 53.76 53.31 52.92 53.06 53.04 52.96 52.89 52.80 52.47 52.40 52.39 52.79 52.88 52.84 52.61 52.88 53.27 53.55 53.62 53.76 53.59 53.60 53.62
81.05 -9.79 -1133.64 16511.09 101.49 6.66 52.38 53.11 53.83 53.83 53.71 53.31 52.96 53.04 53.01 53.03 52.86 52.78 52.47 52.38 52.39 52.74 52.86 52.79 52.59 52.85 53.25 53.53 53.62 53.76 53.59 53.65 53.65
81.00 -9.79 -1133.64 16546.35 99.23 7.00 52.36 53.11 53.88 53.88 53.74 53.31 52.96 53.06 53.04 53.08 52.86 52.76 52.45 52.36 52.39 52.74 52.83 52.79 52.61 52.85 53.25 53.50 53.62 53.76 53.59 53.63 53.67
80.95 -9.79 -1133.64 16579.70 97.12 7.02 52.36 53.11 53.95 53.95 53.76 53.31 53.04 52.96 52.96 52.98 52.81 52.73 52.42 52.36 52.39 52.76 52.88 52.81 52.61 52.88 53.25 53.53 53.64 53.74 53.59 53.65 53.69
80.90 -9.77 -1133.64 16448.90 96.31 7.02 52.36 53.08 53.86 53.86 53.74 53.26 52.96 52.94 52.89 52.88 52.84 52.76 52.40 52.36 52.39 52.76 52.86 52.79 52.61 52.85 53.23 53.48 53.59 53.67 53.51 53.56 53.65
80.85 -9.77 -1129.15 16536.94 95.89 6.94 52.36 53.10 53.88 53.88 53.76 53.29 53.06 53.06 53.01 53.01 52.89 52.78 52.40 52.36 52.44 52.76 52.83 52.76 52.59 52.83 53.23 53.50 53.62 53.67 53.49 53.53 53.65
80.80 -9.77 -1129.15 16509.18 95.91 6.84 52.36 53.10 53.81 53.81 53.74 53.29 53.08 53.11 53.11 53.08 52.93 52.78 52.40 52.36 52.41 52.76 52.83 52.76 52.61 52.88 53.25 53.48 53.62 53.64 53.47 53.49 53.55
80.75 -9.77 -1133.64 16480.00 96.94 6.84 52.33 53.10 53.78 53.78 53.71 53.29 53.08 53.13 53.11 53.10 52.96 52.78 52.40 52.33 52.41 52.74 52.83 52.74 52.61 52.88 53.25 53.48 53.59 53.64 53.44 53.46 53.55
80.70 -9.86 -1133.64 16499.24 98.47 7.02 52.33 53.10 53.81 53.81 53.71 53.24 53.08 53.13 53.14 53.10 52.98 52.83 52.42 52.33 52.41 52.74 52.83 52.71 52.59 52.85 53.27 53.50 53.59 53.62 53.44 53.49 53.62
80.65 -9.86 -1133.64 16472.44 100.25 6.94 52.33 53.12 53.83 53.83 53.71 53.29 53.13 53.13 53.11 53.15 52.96 52.85 52.42 52.33 52.41 52.74 52.83 52.71 52.61 52.90 53.30 53.53 53.62 53.62 53.47 53.51 53.65
80.60 -9.86 -1133.64 16479.16 102.18 6.94 52.33 53.10 53.81 53.81 53.69 53.19 52.99 53.06 53.06 53.08 52.91 52.80 52.42 52.33 52.44 52.74 52.81 52.74 52.61 52.92 53.30 53.50 53.62 53.64 53.49 53.51 53.67
80.55 -9.79 -1129.15 16477.26 104.41 6.82 52.33 53.10 53.83 53.83 53.71 53.17 53.01 53.08 53.09 53.05 52.98 52.80 52.45 52.33 52.41 52.74 52.81 52.69 52.61 52.90 53.30 53.50 53.62 53.62 53.49 53.51 53.69
80.50 -9.79 -1133.64 16498.17 106.95 6.89 52.33 53.10 53.86 53.86 53.71 53.17 53.01 53.04 53.09 53.08 52.96 52.80 52.40 52.33 52.44 52.74 52.81 52.69 52.61 52.88 53.30 53.53 53.64 53.64 53.49 53.51 53.74
80.45 -9.79 -1133.64 16562.56 108.86 6.89 52.31 53.11 53.86 53.86 53.71 53.17 53.06 53.11 53.11 53.08 52.98 52.85 52.45 52.31 52.44 52.69 52.81 52.67 52.61 52.88 53.27 53.50 53.67 53.64 53.51 53.53 53.74
80.40 -9.79 -1133.64 16519.05 110.08 6.97 52.33 53.13 53.86 53.86 53.74 53.17 53.08 53.16 53.14 53.08 53.03 52.85 52.47 52.33 52.49 52.74 52.81 52.62 52.61 52.90 53.30 53.53 53.67 53.69 53.56 53.53 53.77
80.35 -9.79 -1133.64 16510.63 111.16 7.05 52.33 53.13 53.83 53.83 53.71 53.12 53.04 53.13 53.14 53.10 53.03 52.85 52.45 52.33 52.52 52.74 52.81 52.67 52.66 52.92 53.32 53.53 53.67 53.69 53.59 53.53 53.77
80.30 -9.79 -1133.64 16500.39 111.21 7.05 52.31 53.14 53.86 53.86 53.71 53.19 53.13 53.16 53.14 53.15 53.01 52.85 52.47 52.31 52.54 52.76 52.81 52.64 52.64 52.90 53.32 53.50 53.67 53.69 53.56 53.53 53.77
80.25 -9.88 -1133.64 16532.44 110.37 6.74 52.33 53.15 53.93 53.93 53.76 53.19 53.11 53.23 53.24 53.15 53.05 52.85 52.52 52.33 52.57 52.76 52.78 52.59 52.64 52.88 53.30 53.48 53.67 53.67 53.59 53.51 53.77
80.20 -9.88 -1133.64 16532.25 108.89 6.79 52.36 53.16 53.93 53.93 53.76 53.21 53.18 53.25 53.26 53.18 53.10 52.88 52.49 52.36 52.59 52.79 52.78 52.57 52.66 52.88 53.30 53.43 53.62 53.64 53.56 53.49 53.81
80.15 -9.88 -1133.64 16513.29 108.12 6.79 52.33 53.14 53.86 53.86 53.76 53.14 53.13 53.23 53.21 53.15 53.10 52.85 52.47 52.33 52.59 52.74 52.78 52.57 52.66 52.88 53.27 53.46 53.64 53.62 53.54 53.49 53.79
80.10 -9.88 -1133.64 16521.91 105.98 7.02 52.33 53.12 53.86 53.86 53.69 53.12 53.08 53.18 53.19 53.13 53.08 52.85 52.49 52.33 52.59 52.74 52.78 52.54 52.61 52.90 53.27 53.48 53.64 53.62 53.54 53.49 53.79
80.05 -9.81 -1133.64 16500.03 103.93 7.02 52.33 53.13 53.86 53.86 53.76 53.09 53.11 53.20 53.21 53.13 53.10 52.85 52.47 52.33 52.59 52.74 52.76 52.57 52.64 52.90 53.30 53.46 53.64 53.64 53.56 53.49 53.79
