~Version Information
VERS.                      2.0: CWLS Log ASCII Standard - VERSION 2.0
WRAP.                       NO: One line per depth step
#Non standard LAS - data should be wrapped
~Well Information Block
STRT.M                  140.00: START DEPTH
STOP.M                   80.00: STOP DEPTH
STEP.M                 -0.0500: STEP
NULL.                -999.2500: NULL VALUE
COMP.                         : COMPANY
WELL.                         : WELL
FLD.                          : FIELD
LOC.                          : LOCATION
DATE.         26 05-38-47 2014: LOG DATE
~Curve Information Block
DEPT.M             0 000 00 00: Depth
LSPD.M/MIN                   0: Line Speed
LTEN.KG                      0: Surface Line Tension
CCL.                        0: Casing Collar Locator
GR.GAPI                     0: Gamma Ray
WTEMP.DEGC                  0: GTC Well Temperature
MNRD.MM                      0: Min Radius
AVRD.MM                      0: Avg Radius
MXRD.MM                      0: Max Radius
R01.MM                       0: Radius 01
R02.MM                       0: Radius 02
R03.MM                       0: Radius 03
R04.MM                       0: Radius 04
R05.MM                       0: Radius 05
R06.MM                       0: Radius 06
R07.MM                       0: Radius 07
R08.MM                       0: Radius 08
R09.MM                       0: Radius 09
R10.MM                       0: Radius 10
R11.MM                       0: Radius 11
R12.MM                       0: Radius 12
R13.MM                       0: Radius 13
R14.MM                       0: Radius 14
R15.MM                       0: Radius 15
R16.MM                       0: Radius 16
R17.MM                       0: Radius 17
R18.MM                       0: Radius 18
R19.MM                       0: Radius 19
R20.MM                       0: Radius 20
R21.MM                       0: Radius 21
R22.MM                       0: Radius 22
R23.MM                       0: Radius 23
R24.MM                       0: Radius 24
~A  Depth   LSPD LTEN     CCL       GR    WTemp MNRD   AVRD   MXRD    R01    R02    R03    R04    R05    R06    R07    R08    R09    R10    R11    R12    R13    R14    R15    R16    R17    R18    R19    R20    R21    R22    R23    R24
# ...
124.00 -9.77 -1133.64 16514.24 67.76 8.12 51.80 52.30 52.78 52.58 52.65 52.44 52.66 52.78 52.54 52.42 52.29 52.19 52.18 52.09 52.04 51.88 51.80 51.93 51.97 51.93 52.14 52.18 52.29 52.47 52.48 52.58 52.63
123.95 -9.77 -1133.64 16534.42 69.40 8.12 51.82 52.29 52.78 52.56 52.65 52.34 52.54 52.78 52.54 52.35 52.34 52.17 52.16 52.12 52.04 51.88 51.82 51.93 51.97 51.91 52.14 52.18 52.32 52.47 52.50 52.58 52.63
123.90 -9.82 -1133.64 16461.95 70.89 8.28 51.80 52.28 52.78 52.53 52.65 52.34 52.57 52.78 52.51 52.35 52.29 52.17 52.16 52.04 52.01 51.85 51.80 51.93 51.97 51.88 52.14 52.16 52.27 52.50 52.50 52.58 52.65
123.85 -9.82 -1129.15 16464.45 72.24 8.30 51.80 52.29 52.76 52.58 52.68 52.37 52.57 52.76 52.56 52.35 52.31 52.17 52.13 52.07 52.04 51.88 51.80 51.93 51.94 51.93 52.14 52.21 52.29 52.47 52.50 52.58 52.63
123.80 -9.82 -1133.64 16473.23 73.65 8.30 51.77 52.27 52.71 52.53 52.63 52.37 52.57 52.71 52.49 52.32 52.24 52.14 52.11 52.04 51.98 51.85 51.77 51.93 51.94 51.93 52.16 52.21 52.29 52.47 52.50 52.58 52.65
123.75 -9.84 -1133.64 16503.47 75.17 8.15 51.77 52.25 52.68 52.51 52.60 52.32 52.54 52.68 52.51 52.35 52.24 52.14 52.11 52.04 51.98 51.80 51.77 51.88 51.94 51.93 52.16 52.18 52.29 52.47 52.48 52.56 52.60
123.70 -9.84 -1133.64 16443.54 76.36 8.07 51.80 52.27 52.73 52.53 52.63 52.32 52.54 52.73 52.54 52.32 52.29 52.09 52.08 52.04 52.01 51.83 51.80 51.93 51.94 52.03 52.19 52.21 52.29 52.47 52.48 52.53 52.60
123.65 -9.84 -1133.64 16460.33 77.31 8.07 51.80 52.27 52.71 52.53 52.63 52.32 52.54 52.71 52.54 52.32 52.27 52.09 52.11 52.04 51.98 51.85 51.80 51.93 51.94 52.03 52.19 52.26 52.32 52.47 52.48 52.56 52.63
123.60 -9.77 -1129.15 16520.34 77.46 8.20 51.80 52.26 52.71 52.48 52.60 52.27 52.49 52.71 52.51 52.30 52.27 52.04 52.08 52.04 52.01 51.85 51.80 51.95 51.94 52.03 52.21 52.26 52.29 52.50 52.48 52.53 52.60
123.55 -9.77 -1133.64 16455.43 77.24 8.28 51.80 52.27 52.66 52.48 52.58 52.32 52.54 52.66 52.51 52.35 52.24 52.14 52.11 52.04 52.01 51.85 51.80 51.98 51.97 52.06 52.21 52.26 52.34 52.52 52.48 52.53 52.60
123.50 -9.77 -1133.64 16442.84 76.91 8.28 51.80 52.28 52.71 52.51 52.63 52.32 52.54 52.71 52.51 52.35 52.24 52.09 52.11 52.07 52.01 51.85 51.80 51.95 51.94 52.08 52.24 52.28 52.32 52.50 52.48 52.53 52.60
123.45 -9.84 -1133.64 16444.37 76.04 8.00 51.80 52.27 52.66 52.46 52.55 52.27 52.49 52.66 52.51 52.30 52.29 52.22 52.11 52.07 52.01 51.85 51.80 51.95 51.97 52.06 52.21 52.26 52.32 52.50 52.48 52.53 52.60
123.40 -9.84 -1133.64 16548.41 75.42 8.20 51.77 52.28 52.71 52.53 52.63 52.34 52.57 52.71 52.56 52.32 52.29 52.24 52.11 52.07 52.01 51.85 51.77 51.98 51.97 52.08 52.21 52.23 52.27 52.47 52.48 52.53 52.60
123.35 -9.84 -1133.64 16454.53 74.61 8.20 51.80 52.29 52.71 52.51 52.60 52.32 52.52 52.71 52.54 52.35 52.31 52.29 52.13 52.07 52.01 51.88 51.80 51.95 51.94 52.08 52.21 52.26 52.29 52.50 52.45 52.56 52.60
123.30 -9.84 -1133.64 16488.24 73.64 8.15 51.80 52.29 52.73 52.51 52.60 52.32 52.54 52.73 52.54 52.32 52.29 52.32 52.11 52.07 52.04 51.88 51.80 52.00 51.97 52.13 52.21 52.26 52.29 52.50 52.48 52.53 52.58
123.25 -9.84 -1129.15 16519.68 72.80 8.25 51.85 52.29 52.68 52.48 52.58 52.27 52.49 52.68 52.54 52.30 52.29 52.19 52.16 52.09 52.01 51.90 51.85 52.05 51.99 52.16 52.24 52.28 52.32 52.47 52.48 52.56 52.58
123.20 -9.84 -1133.64 16615.18 72.40 8.25 51.85 52.29 52.71 52.48 52.60 52.32 52.54 52.71 52.51 52.32 52.29 52.09 52.11 52.07 52.04 51.90 51.85 52.03 51.99 52.16 52.26 52.28 52.32 52.47 52.48 52.53 52.58
123.15 -9.84 -1133.64 16495.37 72.19 8.00 51.85 52.28 52.66 52.46 52.55 52.27 52.49 52.66 52.46 52.30 52.24 52.19 52.13 52.07 52.04 51.90 51.85 52.03 51.99 52.16 52.24 52.26 52.34 52.50 52.48 52.56 52.58
123.10 -9.73 -1133.64 16482.91 72.46 8.25 51.82 52.29 52.73 52.51 52.60 52.29 52.49 52.73 52.51 52.27 52.27 52.17 52.11 52.07 52.06 51.90 51.82 52.03 51.99 52.18 52.24 52.26 52.32 52.50 52.50 52.56 52.60
123.05 -9.73 -1129.15 16469.69 73.25 8.25 51.85 52.29 52.68 52.51 52.60 52.34 52.57 52.68 52.49 52.35 52.27 52.17 52.11 52.07 52.01 51.90 51.85 52.00 51.99 52.16 52.21 52.26 52.29 52.50 52.50 52.53 52.60
123.00 -9.73 -1133.64 16499.66 73.78 8.20 51.82 52.29 52.73 52.51 52.63 52.34 52.54 52.73 52.51 52.30 52.29 52.09 52.11 52.07 52.01 51.88 51.82 52.00 51.99 52.16 52.24 52.26 52.29 52.50 52.48 52.58 52.60
122.95 -9.83 -1133.64 16497.98 74.83 8.20 51.85 52.29 52.68 52.51 52.60 52.34 52.54 52.68 52.49 52.37 52.27 52.09 52.11 52.09 52.04 51.88 51.85 51.98 51.97 52.13 52.21 52.26 52.29 52.50 52.50 52.58 52.63
122.90 -9.83 -1129.15 16465.96 75.45 8.23 51.82 52.29 52.73 52.53 52.63 52.32 52.54 52.73 52.51 52.32 52.29 52.12 52.11 52.07 52.04 51.85 51.82 52.03 51.99 52.13 52.19 52.26 52.32 52.47 52.48 52.58 52.63
122.85 -9.83 -1133.64 16376.28 75.94 8.10 51.85 52.29 52.71 52.51 52.60 52.32 52.52 52.71 52.51 52.32 52.29 52.14 52.13 52.07 52.01 51.88 51.85 52.03 51.99 52.11 52.19 52.26 52.32 52.50 52.50 52.58 52.63
122.80 -9.79 -1133.64 16472.49 76.43 8.10 51.82 52.30 52.71 52.58 52.63 52.39 52.59 52.71 52.51 52.37 52.27 52.19 52.13 52.04 52.01 51.88 51.82 52.00 51.99 52.11 52.19 52.23 52.29 52.50 52.48 52.56 52.63
122.75 -9.79 -1133.64 16538.52 76.75 8.30 51.82 52.29 52.73 52.56 52.65 52.37 52.57 52.73 52.54 52.37 52.27 52.12 52.11 52.07 52.04 51.88 51.82 52.00 51.99 52.03 52.16 52.23 52.29 52.52 52.50 52.58 52.63
122.70 -9.79 -1133.64 16468.76 76.77 8.02 51.85 52.28 52.78 52.51 52.60 52.34 52.54 52.78 52.51 52.32 52.31 52.17 52.13 52.07 52.04 51.88 51.85 51.98 51.99 52.01 52.11 52.18 52.27 52.50 52.48 52.56 52.65
122.65 -9.79 -1129.15 16517.97 76.62 8.02 51.77 52.27 52.76 52.51 52.63 52.32 52.52 52.76 52.51 52.32 52.31 52.14 52.13 52.07 52.01 51.85 51.77 51.95 51.97 52.01 52.14 52.21 52.27 52.47 52.48 52.58 52.60
122.60 -9.74 -1129.15 16541.38 76.34 8.23 51.80 52.29 52.78 52.56 52.68 52.39 52.59 52.78 52.54 52.37 52.31 52.17 52.11 52.09 52.04 51.83 51.80 51.93 51.97 52.01 52.16 52.21 52.29 52.50 52.48 52.56 52.63
122.55 -9.74 -1133.64 16592.98 75.43 8.28 51.77 52.27 52.71 52.53 52.60 52.34 52.54 52.71 52.46 52.32 52.27 52.14 52.13 52.07 52.04 51.83 51.77 51.93 51.97 51.96 52.14 52.21 52.29 52.47 52.48 52.58 52.63
122.50 -9.74 -1129.15 16516.42 74.07 8.28 51.80 52.27 52.73 52.51 52.60 52.34 52.54 52.73 52.46 52.35 52.27 52.14 52.13 52.04 52.01 51.83 51.80 51.95 51.97 51.98 52.14 52.21 52.27 52.50 52.48 52.58 52.63
122.45 -9.87 -1133.64 16597.56 72.99 8.02 51.80 52.27 52.66 52.51 52.60 52.32 52.54 52.66 52.46 52.32 52.27 52.14 52.16 52.04 52.01 51.83 51.80 51.93 51.97 52.01 52.16 52.23 52.27 52.47 52.48 52.58 52.63
122.40 -9.87 -1133.64 16581.10 72.23 8.05 51.77 52.26 52.73 52.53 52.65 52.32 52.57 52.73 52.51 52.30 52.29 52.17 52.11 52.04 51.98 51.83 51.77 51.90 51.94 52.01 52.14 52.21 52.27 52.45 52.43 52.53 52.58
122.35 -9.87 -1133.64 16558.56 71.11 8.05 51.77 52.26 52.68 52.53 52.63 52.37 52.57 52.68 52.49 52.37 52.24 52.14 52.11 52.04 52.01 51.83 51.77 51.90 51.94 51.98 52.16 52.21 52.27 52.45 52.45 52.56 52.58
122.30 -9.78 -1129.15 16504.02 70.06 8.20 51.77 52.27 52.73 52.56 52.65 52.37 52.59 52.73 52.51 52.35 52.27 52.17 52.11 52.04 51.98 51.83 51.77 51.90 51.94 51.96 52.14 52.21 52.27 52.50 52.45 52.53 52.60
122.25 -9.78 -1133.64 16707.66 69.26 7.94 51.77 52.26 52.68 52.48 52.60 52.29 52.49 52.68 52.49 52.30 52.29 52.17 52.13 52.04 52.01 51.83 51.77 51.93 51.94 52.01 52.16 52.23 52.27 52.47 52.48 52.53 52.60
122.20 -9.78 -1133.64 16728.52 68.61 7.94 51.80 52.28 52.71 52.53 52.63 52.37 52.57 52.71 52.54 52.35 52.27 52.14 52.13 52.07 52.01 51.83 51.80 51.95 51.97 52.06 52.21 52.26 52.29 52.50 52.45 52.53 52.60
122.15 -9.74 -1133.64 16446.70 68.13 8.17 51.82 52.28 52.71 52.51 52.60 52.29 52.54 52.71 52.51 52.30 52.29 52.12 52.13 52.07 52.01 51.88 51.82 51.98 51.97 52.11 52.24 52.26 52.32 52.50 52.48 52.53 52.60
122.10 -9.74 -1133.64 16385.16 67.87 8.20 51.82 52.27 52.63 52.46 52.55 52.27 52.49 52.63 52.46 52.27 52.22 52.12 52.13 52.04 51.98 51.88 51.82 52.03 51.97 52.13 52.29 52.28 52.37 52.52 52.48 52.51 52.58
122.05 -9.74 -1129.15 16478.72 67.85 8.20 51.87 52.27 52.61 52.46 52.55 52.24 52.47 52.61 52.43 52.27 52.22 52.12 52.11 52.09 52.01 51.90 51.87 52.00 51.99 52.16 52.31 52.30 52.34 52.50 52.45 52.56 52.60
