~Version Information
VERS.                      2.0: CWLS Log ASCII Standard - VERSION 2.0
WRAP.                       NO: One line per depth step
#Non standard LAS - data should be wrapped
~Well Information Block
STRT.M                  140.00: START DEPTH
STOP.M                   80.00: STOP DEPTH
STEP.M                 -0.0500: STEP
NULL.                -999.2500: NULL VALUE
COMP.                         : COMPANY
WELL.                         : WELL
FLD.                          : FIELD
LOC.                          : LOCATION
DATE.         26 05-38-47 2014: LOG DATE
~Curve Information Block
DEPT.M             0 000 00 00: Depth
LSPD.M/MIN                   0: Line Speed
LTEN.KG                      0: Surface Line Tension
CCL.                        0: Casing Collar Locator
GR.GAPI                     0: Gamma Ray
WTEMP.DEGC                  0: GTC Well Temperature
MNRD.MM                      0: Min Radius
AVRD.MM                      0: Avg Radius
MXRD.MM                      0: Max Radius
R01.MM                       0: Radius 01
R02.MM                       0: Radius 02
R03.MM                       0: Radius 03
R04.MM                       0: Radius 04
R05.MM                       0: Radius 05
R06.MM                       0: Radius 06
R07.MM                       0: Radius 07
R08.MM                       0: Radius 08
R09.MM                       0: Radius 09
R10.MM                       0: Radius 10
R11.MM                       0: Radius 11
R12.MM                       0: Radius 12
R13.MM                       0: Radius 13
R14.MM                       0: Radius 14
R15.MM                       0: Radius 15
R16.MM                       0: Radius 16
R17.MM                       0: Radius 17
R18.MM                       0: Radius 18
R19.MM                       0: Radius 19
R20.MM                       0: Radius 20
R21.MM                       0: Radius 21
R22.MM                       0: Radius 22
R23.MM                       0: Radius 23
R24.MM                       0: Radius 24
~A  Depth   LSPD LTEN     CCL       GR    WTemp MNRD   AVRD   MXRD    R01    R02    R03    R04    R05    R06    R07    R08    R09    R10    R11    R12    R13    R14    R15    R16    R17    R18    R19    R20    R21    R22    R23    R24
# ...
86.00 -9.83 -1133.64 16455.18 114.92 6.94 53.36 54.03 54.54 54.19 54.52 54.43 54.48 54.42 54.22 54.01 53.84 53.78 53.65 53.59 53.48 53.36 53.43 53.55 53.63 53.90 54.02 54.03 54.22 54.43 54.48 54.54 54.41
85.95 -9.91 -1133.64 16619.29 114.62 6.87 53.36 54.03 54.52 54.21 54.52 54.39 54.46 54.47 54.26 53.99 53.91 53.80 53.67 53.62 53.48 53.36 53.43 53.55 53.65 53.87 54.02 54.06 54.22 54.41 54.46 54.51 54.36
85.90 -9.91 -1133.64 16485.71 114.49 7.10 53.39 54.04 54.54 54.21 54.54 54.46 54.51 54.49 54.26 54.04 53.93 53.80 53.67 53.62 53.48 53.39 53.46 53.55 53.65 53.90 54.02 54.08 54.22 54.41 54.46 54.54 54.36
85.85 -9.91 -1133.64 16432.58 114.59 7.10 53.36 54.04 54.54 54.24 54.54 54.48 54.53 54.47 54.29 54.06 53.91 53.83 53.67 53.62 53.50 53.36 53.41 53.55 53.65 53.90 54.02 54.06 54.22 54.43 54.48 54.49 54.36
85.80 -9.83 -1129.15 16466.78 115.45 7.10 53.36 54.04 54.52 54.26 54.52 54.48 54.51 54.49 54.26 54.04 53.93 53.80 53.67 53.62 53.50 53.36 53.43 53.58 53.65 53.87 54.02 54.06 54.22 54.41 54.46 54.51 54.34
85.75 -9.83 -1133.64 16551.29 116.63 6.92 53.39 54.05 54.56 54.31 54.56 54.50 54.53 54.47 54.26 54.06 53.91 53.78 53.65 53.62 53.48 53.39 53.46 53.55 53.65 53.90 54.04 54.06 54.19 54.43 54.48 54.54 54.34
85.70 -9.83 -1133.64 16520.84 117.22 6.92 53.39 54.03 54.58 54.29 54.49 54.46 54.51 54.45 54.22 54.04 53.86 53.76 53.63 53.62 53.48 53.39 53.46 53.55 53.65 53.87 53.99 54.03 54.19 54.43 54.51 54.58 54.39
85.65 -9.82 -1129.15 16512.08 117.49 6.92 53.36 54.04 54.61 54.31 54.54 54.53 54.53 54.45 54.22 54.06 53.86 53.73 53.63 53.59 53.48 53.36 53.43 53.53 53.63 53.87 54.02 54.06 54.24 54.46 54.55 54.61 54.36
85.60 -9.82 -1138.13 16470.66 117.24 7.05 53.34 54.03 54.63 54.33 54.52 54.50 54.51 54.42 54.19 54.01 53.84 53.73 53.63 53.57 53.43 53.34 53.41 53.50 53.63 53.87 53.99 54.08 54.26 54.43 54.55 54.63 54.36
85.55 -9.82 -1133.64 16496.08 117.12 7.05 53.29 54.03 54.61 54.38 54.54 54.53 54.53 54.42 54.22 54.06 53.84 53.73 53.60 53.54 53.40 53.29 53.41 53.50 53.65 53.85 53.97 54.06 54.24 54.48 54.55 54.61 54.36
85.50 -9.91 -1133.64 16541.41 117.06 7.05 53.34 54.02 54.58 54.36 54.52 54.46 54.48 54.42 54.19 53.99 53.86 53.71 53.60 53.52 53.40 53.34 53.41 53.53 53.65 53.85 53.97 54.03 54.22 54.43 54.53 54.58 54.34
85.45 -9.91 -1133.64 16463.93 117.52 7.15 53.31 54.03 54.56 54.41 54.56 54.50 54.53 54.45 54.24 54.04 53.88 53.71 53.60 53.52 53.40 53.31 53.41 53.48 53.65 53.87 53.99 54.03 54.24 54.46 54.55 54.56 54.34
85.40 -9.91 -1133.64 16462.02 117.35 7.15 53.31 54.01 54.54 54.36 54.52 54.48 54.51 54.38 54.19 53.99 53.81 53.71 53.58 53.54 53.40 53.31 53.41 53.53 53.63 53.82 53.95 54.03 54.22 54.46 54.53 54.54 54.31
85.35 -9.91 -1133.64 16520.39 117.17 7.12 53.34 54.01 54.54 54.38 54.54 54.43 54.48 54.40 54.22 53.99 53.84 53.73 53.58 53.54 53.43 53.34 53.43 53.55 53.65 53.87 53.97 54.03 54.22 54.43 54.51 54.54 54.20
85.30 -9.83 -1133.64 16527.77 116.98 7.23 53.36 54.01 54.54 54.36 54.54 54.46 54.46 54.38 54.22 53.97 53.86 53.73 53.60 53.54 53.43 53.36 53.43 53.55 53.65 53.87 53.97 54.03 54.24 54.43 54.51 54.49 54.20
85.25 -9.83 -1133.64 16452.80 117.12 7.23 53.34 54.01 54.52 54.38 54.52 54.46 54.48 54.35 54.19 53.99 53.81 53.76 53.60 53.54 53.43 53.34 53.43 53.55 53.65 53.85 53.97 54.03 54.22 54.46 54.51 54.49 54.20
85.20 -9.83 -1133.64 16477.46 117.99 7.17 53.34 53.99 54.49 54.31 54.45 54.39 54.41 54.35 54.14 53.94 53.84 53.73 53.60 53.54 53.43 53.34 53.43 53.53 53.65 53.85 53.95 54.06 54.22 54.43 54.48 54.49 54.22
85.15 -9.83 -1133.64 16513.91 118.67 7.12 53.36 54.01 54.52 54.36 54.52 54.43 54.48 54.40 54.19 53.97 53.86 53.73 53.60 53.54 53.43 53.36 53.41 53.53 53.65 53.87 53.97 54.06 54.22 54.43 54.48 54.47 54.24
85.10 -9.83 -1133.64 16547.38 120.06 7.12 53.34 54.01 54.54 54.41 54.54 54.43 54.48 54.38 54.19 53.99 53.84 53.76 53.63 53.52 53.40 53.34 53.41 53.53 53.65 53.82 53.95 54.03 54.22 54.43 54.46 54.49 54.24
85.05 -9.83 -1133.64 16458.47 121.85 7.28 53.31 54.00 54.54 54.38 54.54 54.43 54.48 54.40 54.19 53.99 53.88 53.76 53.60 53.49 53.38 53.31 53.41 53.50 53.65 53.85 53.92 54.03 54.22 54.41 54.46 54.47 54.22
85.00 -9.92 -1129.15 16484.83 123.86 6.82 53.34 54.00 54.49 54.36 54.49 54.46 54.48 54.35 54.14 53.99 53.84 53.73 53.58 53.52 53.38 53.34 53.41 53.48 53.65 53.82 53.92 54.06 54.22 54.43 54.48 54.49 54.29
84.95 -9.92 -1133.64 16499.87 125.97 6.82 53.31 53.99 54.52 54.33 54.52 54.41 54.46 54.40 54.17 53.97 53.88 53.76 53.60 53.52 53.40 53.31 53.41 53.50 53.65 53.78 53.90 54.01 54.19 54.41 54.46 54.47 54.20
84.90 -9.92 -1133.64 16536.03 127.60 7.12 53.31 53.99 54.54 54.36 54.54 54.43 54.46 54.42 54.19 53.99 53.88 53.78 53.60 53.52 53.38 53.31 53.39 53.50 53.63 53.80 53.92 54.03 54.19 54.41 54.43 54.44 54.12
84.85 -9.83 -1129.15 16490.36 130.09 7.12 53.31 53.99 54.52 54.38 54.52 54.43 54.44 54.38 54.19 53.94 53.88 53.78 53.63 53.52 53.38 53.31 53.41 53.50 53.63 53.82 53.92 54.03 54.19 54.39 54.43 54.44 54.15
84.80 -9.83 -1133.64 16501.02 132.41 7.28 53.31 53.99 54.54 54.38 54.54 54.43 54.48 54.40 54.19 53.99 53.91 53.78 53.60 53.49 53.38 53.31 53.41 53.50 53.63 53.80 53.92 54.01 54.17 54.41 54.48 54.44 54.08
84.75 -9.83 -1133.64 16532.80 134.65 6.89 53.31 53.99 54.54 54.41 54.54 54.46 54.48 54.42 54.19 53.97 53.89 53.73 53.63 53.52 53.38 53.31 53.41 53.48 53.63 53.82 53.92 54.03 54.22 54.39 54.48 54.47 54.03
84.70 -9.83 -1133.64 16523.47 136.81 6.89 53.29 53.99 54.54 54.43 54.54 54.53 54.53 54.40 54.17 53.99 53.84 53.73 53.60 53.49 53.38 53.29 53.39 53.48 53.63 53.80 53.92 54.01 54.17 54.41 54.51 54.47 54.03
84.65 -9.86 -1133.64 16520.20 138.83 7.25 53.29 53.99 54.56 54.45 54.56 54.53 54.48 54.38 54.14 53.97 53.84 53.73 53.58 53.49 53.35 53.29 53.39 53.48 53.63 53.78 53.90 54.03 54.22 54.43 54.48 54.51 54.03
84.60 -9.86 -1133.64 16523.05 140.51 6.94 53.26 54.01 54.63 54.55 54.63 54.62 54.58 54.42 54.17 54.01 53.84 53.71 53.56 53.45 53.33 53.26 53.34 53.48 53.63 53.82 53.92 54.08 54.26 54.48 54.58 54.58 54.05
84.55 -9.86 -1129.15 16497.73 141.58 6.94 53.24 54.02 54.68 54.57 54.68 54.62 54.55 54.42 54.14 53.97 53.79 53.66 53.53 53.42 53.30 53.24 53.31 53.43 53.60 53.85 53.92 54.11 54.33 54.55 54.65 54.63 54.15
84.50 -9.93 -1133.64 16471.73 141.66 7.00 53.24 54.02 54.71 54.62 54.71 54.67 54.62 54.42 54.17 53.99 53.79 53.64 53.51 53.40 53.25 53.24 53.31 53.43 53.60 53.85 53.90 54.13 54.31 54.57 54.65 54.63 54.17
84.45 -9.93 -1133.64 16499.43 140.88 7.07 53.21 54.05 54.75 54.67 54.75 54.67 54.60 54.47 54.19 53.99 53.84 53.66 53.51 53.40 53.27 53.21 53.31 53.45 53.63 53.87 53.92 54.15 54.36 54.60 54.67 54.65 54.24
84.40 -9.93 -1129.15 16477.84 139.07 7.07 53.21 54.05 54.78 54.69 54.78 54.65 54.60 54.47 54.19 53.97 53.84 53.66 53.51 53.40 53.25 53.21 53.31 53.48 53.63 53.87 53.95 54.15 54.36 54.62 54.69 54.68 54.31
84.35 -9.82 -1133.64 16498.23 137.04 7.15 53.21 54.05 54.78 54.69 54.78 54.67 54.62 54.49 54.19 53.99 53.82 53.68 53.48 53.40 53.25 53.21 53.31 53.45 53.63 53.87 53.97 54.18 54.38 54.60 54.69 54.68 54.27
84.30 -9.82 -1129.15 16544.75 134.65 7.05 53.24 54.05 54.73 54.67 54.73 54.67 54.60 54.45 54.14 53.99 53.79 53.68 53.51 53.37 53.25 53.24 53.31 53.45 53.63 53.87 53.97 54.18 54.41 54.62 54.72 54.70 54.34
84.25 -9.82 -1133.64 16481.81 131.52 7.05 53.21 54.05 54.75 54.67 54.75 54.62 54.55 54.47 54.19 53.94 53.84 53.68 53.51 53.37 53.25 53.21 53.31 53.45 53.63 53.87 53.97 54.18 54.38 54.60 54.69 54.68 54.34
84.20 -9.82 -1129.15 16462.02 127.94 6.97 53.21 54.06 54.78 54.72 54.78 54.67 54.60 54.45 54.19 53.99 53.82 53.68 53.51 53.35 53.25 53.21 53.31 53.48 53.63 53.87 53.99 54.18 54.41 54.60 54.69 54.68 54.36
84.15 -9.87 -1133.64 16493.68 124.30 6.97 53.19 54.05 54.73 54.67 54.73 54.70 54.60 54.42 54.17 54.01 53.82 53.66 53.46 53.35 53.20 53.19 53.31 53.48 53.63 53.85 53.97 54.18 54.36 54.62 54.69 54.68 54.43
84.10 -9.87 -1133.64 16516.78 119.81 6.97 53.19 54.03 54.73 54.64 54.73 54.62 54.58 54.40 54.14 53.97 53.82 53.66 53.46 53.35 53.20 53.19 53.34 53.45 53.63 53.85 53.97 54.18 54.36 54.60 54.67 54.70 54.34
84.05 -9.87 -1133.64 16551.17 115.53 7.10 53.19 54.04 54.73 54.64 54.73 54.60 54.55 54.45 54.17 53.94 53.84 53.68 53.46 53.32 53.20 53.19 53.29 53.45 53.63 53.87 53.97 54.18 54.38 54.62 54.69 54.68 54.34
