~Version Information
VERS.                      2.0: CWLS Log ASCII Standard - VERSION 2.0
WRAP.                       NO: One line per depth step
#Non standard LAS - data should be wrapped
~Well Information Block
STRT.M                  140.00: START DEPTH
STOP.M                   80.00: STOP DEPTH
STEP.M                 -0.0500: STEP
NULL.                -999.2500: NULL VALUE
COMP.                         : COMPANY
WELL.                         : WELL
FLD.                          : FIELD
LOC.                          : LOCATION
DATE.         26 05-38-47 2014: LOG DATE
~Curve Information Block
DEPT.M             0 000 00 00: Depth
LSPD.M/MIN                   0: Line Speed
LTEN.KG                      0: Surface Line Tension
CCL.                        0: Casing Collar Locator
GR.GAPI                     0: Gamma Ray
WTEMP.DEGC                  0: GTC Well Temperature
MNRD.MM                      0: Min Radius
AVRD.MM                      0: Avg Radius
MXRD.MM                      0: Max Radius
R01.MM                       0: Radius 01
R02.MM                       0: Radius 02
R03.MM                       0: Radius 03
R04.MM                       0: Radius 04
R05.MM                       0: Radius 05
R06.MM                       0: Radius 06
R07.MM                       0: Radius 07
R08.MM                       0: Radius 08
R09.MM                       0: Radius 09
R10.MM                       0: Radius 10
R11.MM                       0: Radius 11
R12.MM                       0: Radius 12
R13.MM                       0: Radius 13
R14.MM                       0: Radius 14
R15.MM                       0: Radius 15
R16.MM                       0: Radius 16
R17.MM                       0: Radius 17
R18.MM                       0: Radius 18
R19.MM                       0: Radius 19
R20.MM                       0: Radius 20
R21.MM                       0: Radius 21
R22.MM                       0: Radius 22
R23.MM                       0: Radius 23
R24.MM                       0: Radius 24
~A  Depth   LSPD LTEN     CCL       GR    WTemp MNRD   AVRD   MXRD    R01    R02    R03    R04    R05    R06    R07    R08    R09    R10    R11    R12    R13    R14    R15    R16    R17    R18    R19    R20    R21    R22    R23    R24
140.00 -9.16 -1133.64 16555.64 75.86 8.58 51.90 52.38 52.90 52.68 52.90 52.72 52.81 52.61 52.49 52.32 52.24 52.17 52.11 52.02 51.98 51.90 51.94 52.03 52.25 52.18 52.29 52.33 52.42 52.64 52.70 52.70 52.73
139.95 -9.16 -1129.15 16496.05 77.73 8.58 51.90 52.40 52.93 52.76 52.93 52.72 52.84 52.61 52.51 52.37 52.24 52.14 52.13 52.04 51.96 51.90 51.94 52.05 52.27 52.21 52.31 52.40 52.49 52.67 52.70 52.75 52.73
139.90 -9.16 -1133.64 16480.28 79.91 8.41 51.90 52.41 52.93 52.73 52.93 52.72 52.81 52.66 52.51 52.32 52.24 52.14 52.11 52.04 51.98 51.90 51.94 52.08 52.35 52.23 52.31 52.43 52.49 52.67 52.70 52.73 52.73
139.85 -9.03 -1133.64 16571.73 82.02 8.69 51.96 52.40 52.88 52.68 52.88 52.65 52.74 52.56 52.43 52.30 52.22 52.17 52.11 52.04 51.98 51.96 51.99 52.10 52.35 52.26 52.34 52.45 52.52 52.69 52.75 52.75 52.75
139.80 -9.03 -1133.64 16421.84 83.68 8.69 51.93 52.41 52.90 52.71 52.90 52.67 52.79 52.61 52.49 52.30 52.27 52.17 52.11 52.04 51.98 51.93 51.97 52.10 52.35 52.26 52.36 52.43 52.52 52.69 52.75 52.75 52.75
139.75 -9.03 -1133.64 16419.54 84.93 8.64 51.96 52.40 52.88 52.68 52.88 52.65 52.74 52.56 52.43 52.30 52.22 52.17 52.11 52.04 51.98 51.96 51.97 52.10 52.35 52.23 52.36 52.43 52.52 52.69 52.75 52.75 52.73
139.70 -9.13 -1133.64 16498.42 85.75 8.69 51.96 52.41 52.90 52.73 52.90 52.72 52.84 52.61 52.46 52.35 52.22 52.17 52.11 52.04 51.98 51.96 51.97 52.10 52.37 52.23 52.34 52.43 52.49 52.69 52.75 52.75 52.73
139.65 -9.13 -1133.64 16542.87 86.15 8.69 51.98 52.41 52.88 52.68 52.88 52.67 52.76 52.56 52.43 52.32 52.24 52.19 52.13 52.09 52.01 51.98 51.99 52.10 52.35 52.21 52.31 52.40 52.49 52.67 52.73 52.75 52.75
139.60 -9.13 -1133.64 16492.11 86.53 8.69 51.98 52.42 52.93 52.76 52.93 52.72 52.81 52.61 52.49 52.35 52.24 52.19 52.11 52.07 51.98 51.98 51.99 52.10 52.35 52.23 52.31 52.40 52.49 52.69 52.75 52.73 52.75
139.55 -9.16 -1133.64 16491.59 86.69 8.46 51.98 52.42 52.90 52.73 52.90 52.70 52.79 52.63 52.49 52.32 52.27 52.22 52.16 52.12 52.04 51.98 52.02 52.10 52.35 52.21 52.31 52.38 52.47 52.69 52.73 52.73 52.78
139.50 -9.16 -1133.64 16546.32 86.52 8.46 51.98 52.43 52.93 52.76 52.93 52.72 52.84 52.66 52.51 52.35 52.31 52.22 52.16 52.12 52.04 51.98 52.02 52.10 52.35 52.21 52.31 52.38 52.47 52.69 52.73 52.75 52.75
139.45 -9.16 -1133.64 16550.25 85.86 8.28 51.98 52.41 52.90 52.73 52.90 52.65 52.76 52.61 52.49 52.30 52.29 52.24 52.18 52.14 52.06 51.98 52.02 52.10 52.37 52.18 52.29 52.35 52.44 52.67 52.73 52.73 52.73
139.40 -9.06 -1133.64 16441.73 85.36 8.51 52.01 52.42 52.88 52.73 52.88 52.72 52.81 52.61 52.49 52.35 52.27 52.24 52.18 52.14 52.06 52.01 52.02 52.08 52.37 52.16 52.29 52.33 52.44 52.69 52.73 52.73 52.75
139.35 -9.06 -1133.64 16491.50 84.81 8.51 51.98 52.43 52.95 52.76 52.95 52.72 52.81 52.66 52.54 52.37 52.34 52.27 52.21 52.17 52.06 51.98 52.02 52.08 52.35 52.13 52.24 52.33 52.39 52.67 52.70 52.75 52.75
139.30 -9.06 -1133.64 16531.20 83.95 8.38 51.97 52.41 52.93 52.78 52.93 52.77 52.86 52.66 52.51 52.39 52.29 52.27 52.21 52.17 52.06 51.98 51.97 52.05 52.30 52.11 52.21 52.26 52.32 52.67 52.70 52.73 52.75
139.25 -9.21 -1133.64 16477.65 83.09 8.74 51.96 52.40 52.88 52.68 52.88 52.70 52.76 52.61 52.46 52.37 52.29 52.29 52.23 52.19 52.06 51.96 51.99 52.05 52.30 52.08 52.16 52.26 52.37 52.64 52.70 52.73 52.75
139.20 -9.21 -1133.64 16551.95 82.34 8.74 51.93 52.40 52.95 52.73 52.95 52.77 52.89 52.73 52.56 52.39 52.36 52.29 52.21 52.14 52.04 51.93 51.94 51.98 52.27 52.08 52.16 52.23 52.34 52.60 52.65 52.70 52.73
139.15 -9.21 -1133.64 16525.71 81.52 8.53 51.90 52.38 52.90 52.68 52.90 52.70 52.79 52.71 52.54 52.37 52.36 52.29 52.23 52.14 52.04 51.90 51.94 51.95 52.17 52.03 52.14 52.18 52.27 52.62 52.63 52.68 52.73
139.10 -9.11 -1133.64 16503.99 80.91 8.51 51.88 52.38 52.93 52.68 52.93 52.75 52.89 52.73 52.56 52.39 52.39 52.29 52.21 52.12 52.01 51.88 51.92 51.95 52.17 52.06 52.11 52.18 52.29 52.57 52.63 52.65 52.70
139.05 -9.11 -1133.64 16456.34 80.27 8.51 51.85 52.36 52.88 52.66 52.88 52.75 52.84 52.68 52.54 52.39 52.34 52.32 52.21 52.12 52.01 51.85 51.90 51.93 52.17 52.03 52.11 52.18 52.29 52.55 52.60 52.68 52.70
139.00 -9.11 -1133.64 16471.72 80.29 8.56 51.85 52.36 52.90 52.68 52.90 52.75 52.84 52.68 52.51 52.37 52.36 52.27 52.21 52.09 51.98 51.85 51.87 51.93 52.14 52.03 52.11 52.21 52.29 52.55 52.60 52.65 52.70
138.95 -9.12 -1133.64 16414.11 80.16 8.43 51.87 52.38 52.95 52.76 52.95 52.77 52.89 52.68 52.56 52.42 52.36 52.27 52.18 52.09 51.98 51.88 51.87 51.90 52.14 52.06 52.11 52.18 52.32 52.57 52.65 52.65 52.73
138.90 -9.12 -1138.13 16344.34 79.92 8.43 51.88 52.38 52.95 52.73 52.95 52.75 52.89 52.71 52.54 52.37 52.36 52.27 52.18 52.07 51.98 51.88 51.90 51.98 52.19 52.06 52.11 52.26 52.34 52.60 52.63 52.70 52.73
138.85 -9.12 -1133.64 16472.16 79.84 8.56 51.90 52.37 52.90 52.68 52.90 52.72 52.81 52.61 52.49 52.37 52.29 52.27 52.18 52.09 51.98 51.90 51.90 51.95 52.19 52.08 52.14 52.26 52.37 52.62 52.68 52.70 52.73
138.80 -9.21 -1133.64 16533.45 80.22 8.56 51.90 52.39 52.95 52.73 52.95 52.75 52.81 52.66 52.51 52.35 52.34 52.22 52.18 52.07 51.98 51.90 51.90 51.98 52.22 52.11 52.16 52.28 52.37 52.62 52.68 52.73 52.75
138.75 -9.21 -1129.15 16501.58 80.81 8.69 51.90 52.39 52.95 52.76 52.95 52.72 52.81 52.63 52.51 52.35 52.29 52.22 52.18 52.09 51.98 51.90 51.90 52.00 52.25 52.11 52.19 52.30 52.39 52.64 52.70 52.73 52.75
138.70 -9.21 -1133.64 16503.28 81.58 8.56 51.90 52.39 52.93 52.76 52.93 52.75 52.84 52.61 52.46 52.35 52.24 52.19 52.16 52.09 52.01 51.90 51.90 52.03 52.27 52.13 52.21 52.33 52.39 52.64 52.70 52.73 52.73
138.65 -9.07 -1129.15 16544.43 82.11 8.56 51.94 52.39 52.88 52.71 52.88 52.67 52.74 52.53 52.41 52.30 52.22 52.19 52.13 52.09 51.98 51.96 51.94 52.08 52.35 52.18 52.24 52.35 52.44 52.67 52.73 52.75 52.73
138.60 -9.07 -1133.64 16498.61 82.33 8.51 51.94 52.39 52.88 52.71 52.88 52.72 52.76 52.56 52.41 52.30 52.22 52.17 52.16 52.07 51.98 51.96 51.94 52.05 52.35 52.18 52.29 52.35 52.44 52.67 52.75 52.73 52.75
138.55 -9.07 -1133.64 16427.33 82.65 8.53 51.94 52.41 52.93 52.76 52.93 52.70 52.76 52.61 52.49 52.30 52.27 52.19 52.16 52.09 51.98 51.96 51.94 52.08 52.32 52.18 52.29 52.35 52.47 52.69 52.75 52.78 52.75
138.50 -9.07 -1133.64 16480.51 82.60 8.53 51.97 52.42 52.93 52.78 52.93 52.72 52.79 52.63 52.49 52.32 52.29 52.17 52.16 52.09 52.01 51.98 51.97 52.08 52.35 52.18 52.29 52.38 52.49 52.72 52.75 52.78 52.78
138.45 -9.17 -1129.15 16568.35 82.61 8.30 51.96 52.40 52.88 52.71 52.88 52.65 52.71 52.56 52.46 52.30 52.27 52.22 52.13 52.07 52.01 51.96 51.97 52.05 52.35 52.18 52.29 52.40 52.52 52.69 52.75 52.80 52.75
138.40 -9.17 -1133.64 16511.07 83.15 8.58 51.97 52.41 52.90 52.76 52.90 52.67 52.74 52.58 52.46 52.27 52.27 52.22 52.13 52.09 51.98 51.98 51.97 52.08 52.35 52.18 52.31 52.40 52.49 52.72 52.75 52.78 52.78
138.35 -9.17 -1133.64 16467.61 83.55 8.58 51.97 52.42 52.90 52.73 52.90 52.67 52.74 52.58 52.46 52.30 52.27 52.19 52.16 52.09 51.98 51.98 51.97 52.08 52.37 52.18 52.31 52.40 52.52 52.74 52.78 52.78 52.78
138.30 -9.16 -1129.15 16488.21 83.73 8.61 51.97 52.40 52.85 52.71 52.85 52.65 52.69 52.51 52.41 52.27 52.22 52.19 52.13 52.12 52.01 51.98 51.97 52.13 52.35 52.18 52.31 52.40 52.52 52.74 52.75 52.78 52.75
138.25 -9.16 -1133.64 16550.10 83.47 8.51 51.98 52.42 52.88 52.71 52.88 52.62 52.66 52.53 52.43 52.27 52.27 52.22 52.16 52.12 52.04 51.98 52.02 52.10 52.35 52.21 52.34 52.43 52.54 52.77 52.78 52.78 52.78
138.20 -9.16 -1133.64 16461.85 83.87 8.51 51.98 52.42 52.88 52.73 52.88 52.70 52.71 52.53 52.43 52.32 52.24 52.19 52.16 52.12 52.01 51.98 52.02 52.10 52.37 52.21 52.36 52.43 52.52 52.72 52.78 52.75 52.78
138.15 -9.11 -1133.64 16501.25 84.47 8.43 51.99 52.42 52.90 52.73 52.90 52.67 52.74 52.58 52.46 52.32 52.31 52.22 52.16 52.12 52.01 52.01 51.99 52.10 52.37 52.21 52.34 52.40 52.52 52.74 52.78 52.73 52.75
138.10 -9.11 -1133.64 16478.75 84.96 8.51 51.98 52.40 52.85 52.66 52.85 52.65 52.71 52.51 52.41 52.30 52.29 52.22 52.16 52.12 52.04 51.98 51.99 52.10 52.35 52.16 52.29 52.38 52.47 52.69 52.73 52.73 52.73
138.05 -9.11 -1129.15 16498.09 85.68 8.51 51.98 52.41 52.88 52.71 52.88 52.70 52.74 52.53 52.43 52.35 52.29 52.27 52.18 52.14 52.04 51.98 51.99 52.10 52.37 52.16 52.29 52.40 52.47 52.72 52.73 52.75 52.73
