~Version Information
VERS.                      2.0: CWLS Log ASCII Standard - VERSION 2.0
WRAP.                       NO: One line per depth step
#Non standard LAS - data should be wrapped
~Well Information Block
STRT.M                  140.00: START DEPTH
STOP.M                   80.00: STOP DEPTH
STEP.M                 -0.0500: STEP
NULL.                -999.2500: NULL VALUE
COMP.                         : COMPANY
WELL.                         : WELL
FLD.                          : FIELD
LOC.                          : LOCATION
DATE.         26 05-38-47 2014: LOG DATE
~Curve Information Block
DEPT.M             0 000 00 00: Depth
LSPD.M/MIN                   0: Line Speed
LTEN.KG                      0: Surface Line Tension
CCL.                        0: Casing Collar Locator
GR.GAPI                     0: Gamma Ray
WTEMP.DEGC                  0: GTC Well Temperature
MNRD.MM                      0: Min Radius
AVRD.MM                      0: Avg Radius
MXRD.MM                      0: Max Radius
R01.MM                       0: Radius 01
R02.MM                       0: Radius 02
R03.MM                       0: Radius 03
R04.MM                       0: Radius 04
R05.MM                       0: Radius 05
R06.MM                       0: Radius 06
R07.MM                       0: Radius 07
R08.MM                       0: Radius 08
R09.MM                       0: Radius 09
R10.MM                       0: Radius 10
R11.MM                       0: Radius 11
R12.MM                       0: Radius 12
R13.MM                       0: Radius 13
R14.MM                       0: Radius 14
R15.MM                       0: Radius 15
R16.MM                       0: Radius 16
R17.MM                       0: Radius 17
R18.MM                       0: Radius 18
R19.MM                       0: Radius 19
R20.MM                       0: Radius 20
R21.MM                       0: Radius 21
R22.MM                       0: Radius 22
R23.MM                       0: Radius 23
R24.MM                       0: Radius 24
~A  Depth   LSPD LTEN     CCL       GR    WTemp MNRD   AVRD   MXRD    R01    R02    R03    R04    R05    R06    R07    R08    R09    R10    R11    R12    R13    R14    R15    R16    R17    R18    R19    R20    R21    R22    R23    R24
# ...
98.00 -9.75 -1133.64 16490.15 112.15 7.41 52.71 53.31 53.98 53.98 53.97 53.69 53.70 53.58 53.34 53.37 53.29 53.09 52.95 52.89 52.79 52.71 52.73 52.84 53.01 53.17 53.17 53.16 53.25 53.50 53.66 53.77 53.91
97.95 -9.75 -1133.64 16550.38 114.37 7.46 52.71 53.30 53.91 53.90 53.90 53.62 53.63 53.56 53.24 53.34 53.29 53.14 52.98 52.86 52.79 52.71 52.71 52.81 53.01 53.17 53.20 53.19 53.23 53.50 53.63 53.77 53.91
97.90 -9.79 -1133.64 16498.99 117.00 7.46 52.71 53.31 54.00 54.00 53.97 53.69 53.70 53.61 53.26 53.37 53.34 53.14 53.00 52.89 52.79 52.74 52.71 52.84 53.01 53.12 53.15 53.11 53.20 53.48 53.68 53.77 53.93
97.85 -9.79 -1129.15 16469.69 119.35 7.20 52.71 53.31 53.93 53.93 53.92 53.64 53.68 53.61 53.36 53.39 53.37 53.18 53.05 52.89 52.79 52.71 52.73 52.84 53.01 53.14 53.17 53.14 53.23 53.50 53.66 53.72 53.88
97.80 -9.79 -1133.64 16516.08 122.00 7.51 52.76 53.33 54.00 54.00 53.97 53.76 53.75 53.65 53.36 53.42 53.37 53.16 53.05 52.94 52.87 52.76 52.76 52.81 53.01 53.12 53.13 53.11 53.18 53.48 53.63 53.74 53.91
97.75 -9.82 -1129.15 16537.82 124.00 7.51 52.76 53.33 53.95 53.95 53.95 53.76 53.73 53.56 53.29 53.44 53.32 53.16 53.02 52.94 52.87 52.76 52.76 52.86 53.01 53.17 53.20 53.16 53.20 53.48 53.63 53.74 53.86
97.70 -9.82 -1133.64 16594.44 125.55 7.12 52.76 53.33 53.95 53.95 53.95 53.67 53.68 53.61 53.39 53.39 53.37 53.18 53.05 52.96 52.87 52.76 52.78 52.86 53.01 53.12 53.15 53.14 53.18 53.45 53.63 53.77 53.93
97.65 -9.82 -1129.15 16425.61 126.71 7.56 52.76 53.33 53.98 53.98 53.95 53.72 53.70 53.65 53.49 53.42 53.34 53.18 53.05 52.94 52.87 52.76 52.78 52.89 53.03 53.14 53.13 53.14 53.16 53.43 53.61 53.74 53.93
97.60 -9.74 -1133.64 16458.67 127.36 7.56 52.78 53.34 53.95 53.95 53.95 53.69 53.70 53.63 53.49 53.47 53.41 53.21 53.07 52.96 52.87 52.79 52.78 52.89 53.01 53.14 53.17 53.14 53.18 53.45 53.58 53.74 53.91
97.55 -9.74 -1133.64 16477.73 129.28 7.30 52.81 53.35 54.00 54.00 54.00 53.74 53.73 53.63 53.61 53.47 53.34 53.18 53.05 52.96 52.89 52.81 52.81 52.89 53.03 53.17 53.17 53.14 53.18 53.45 53.61 53.72 53.91
97.50 -9.74 -1129.15 16559.52 131.28 7.30 52.79 53.36 54.02 54.02 53.97 53.72 53.70 53.65 53.61 53.47 53.39 53.18 53.07 52.98 52.87 52.79 52.81 52.89 53.01 53.14 53.17 53.16 53.23 53.45 53.61 53.74 53.91
97.45 -9.83 -1129.15 16487.19 132.86 7.38 52.78 53.34 54.02 54.02 53.95 53.72 53.70 53.61 53.51 53.47 53.34 53.18 53.05 52.94 52.87 52.79 52.78 52.91 53.03 53.12 53.15 53.11 53.18 53.48 53.61 53.74 53.98
97.40 -9.83 -1129.15 16460.22 134.02 7.33 52.76 53.35 54.00 54.00 53.97 53.69 53.70 53.70 53.56 53.51 53.41 53.18 53.05 52.94 52.84 52.76 52.78 52.89 53.03 53.12 53.13 53.11 53.20 53.48 53.61 53.74 53.91
97.35 -9.83 -1133.64 16529.08 135.56 7.33 52.79 53.36 54.02 54.02 54.00 53.81 53.80 53.72 53.58 53.54 53.44 53.18 53.07 52.96 52.87 52.79 52.81 52.86 53.01 53.12 53.13 53.09 53.18 53.45 53.61 53.74 53.91
97.30 -9.83 -1133.64 16525.58 137.12 7.51 52.76 53.35 54.00 54.00 53.97 53.79 53.77 53.70 53.51 53.51 53.41 53.18 53.02 52.91 52.84 52.76 52.81 52.86 53.03 53.17 53.17 53.14 53.20 53.48 53.61 53.74 53.91
97.25 -9.81 -1129.15 16466.53 138.97 7.41 52.76 53.34 54.02 54.02 54.00 53.79 53.75 53.65 53.39 53.54 53.37 53.16 53.05 52.94 52.84 52.76 52.78 52.94 53.01 53.09 53.13 53.07 53.16 53.48 53.61 53.74 53.93
97.20 -9.81 -1133.64 16492.77 141.54 7.41 52.74 53.35 53.97 53.95 53.97 53.72 53.70 53.65 53.46 53.47 53.41 53.16 53.02 52.91 52.84 52.74 52.78 52.96 53.06 53.17 53.17 53.16 53.25 53.48 53.63 53.74 53.88
97.15 -9.81 -1133.64 16481.52 144.18 7.28 52.78 53.33 53.95 53.93 53.95 53.72 53.68 53.61 53.36 53.47 53.39 53.18 53.05 52.94 52.87 52.79 52.78 52.91 53.06 53.14 53.17 53.09 53.18 53.50 53.63 53.72 53.88
97.10 -9.72 -1133.64 16482.31 146.13 7.28 52.76 53.34 53.98 53.98 53.97 53.76 53.73 53.63 53.31 53.47 53.37 53.14 53.05 52.94 52.84 52.76 52.81 52.96 53.03 53.17 53.17 53.14 53.23 53.48 53.61 53.74 53.88
97.05 -9.72 -1133.64 16501.03 147.26 7.28 52.76 53.33 53.95 53.95 53.92 53.69 53.66 53.58 53.31 53.42 53.37 53.18 53.07 52.94 52.84 52.76 52.78 52.91 53.06 53.14 53.20 53.14 53.25 53.53 53.68 53.77 53.88
97.00 -9.72 -1133.64 16494.08 148.07 7.17 52.76 53.34 53.97 53.95 53.97 53.72 53.70 53.61 53.29 53.47 53.34 53.16 53.05 52.94 52.84 52.76 52.78 52.96 53.06 53.17 53.17 53.16 53.25 53.50 53.63 53.74 53.86
96.95 -9.83 -1133.64 16482.36 148.65 7.46 52.76 53.32 53.90 53.90 53.88 53.67 53.63 53.54 53.21 53.44 53.37 53.21 53.07 52.96 52.87 52.76 52.78 52.94 53.06 53.14 53.15 53.14 53.23 53.50 53.63 53.72 53.84
96.90 -9.83 -1133.64 16529.72 149.03 7.46 52.81 53.32 53.90 53.90 53.90 53.72 53.68 53.54 53.21 53.44 53.34 53.18 53.10 52.98 52.89 52.81 52.81 52.91 53.06 53.12 53.15 53.09 53.20 53.50 53.61 53.72 53.86
96.85 -9.83 -1133.64 16524.23 149.16 7.64 52.76 53.32 53.92 53.90 53.92 53.64 53.63 53.58 53.26 53.42 53.39 53.21 53.07 52.94 52.84 52.76 52.81 52.96 53.03 53.17 53.15 53.11 53.23 53.48 53.63 53.70 53.86
96.80 -9.77 -1129.15 16459.25 148.47 7.25 52.76 53.32 53.97 53.95 53.97 53.72 53.68 53.63 53.24 53.47 53.41 53.23 53.10 52.94 52.87 52.76 52.81 52.91 53.03 53.09 53.08 53.04 53.13 53.41 53.56 53.70 53.88
96.75 -9.77 -1129.15 16530.66 147.90 7.25 52.79 53.33 53.95 53.95 53.95 53.72 53.70 53.65 53.34 53.51 53.46 53.23 53.07 52.94 52.84 52.79 52.81 52.94 53.06 53.12 53.08 53.04 53.16 53.43 53.58 53.67 53.81
96.70 -9.77 -1138.13 16446.65 146.60 7.41 52.79 53.33 53.93 53.93 53.92 53.69 53.70 53.63 53.34 53.49 53.46 53.26 53.12 52.98 52.89 52.79 52.81 52.91 53.03 53.09 53.10 53.04 53.13 53.43 53.56 53.65 53.84
96.65 -9.77 -1133.64 16451.73 145.65 7.33 52.81 53.32 53.93 53.93 53.92 53.72 53.73 53.65 53.29 53.49 53.46 53.26 53.12 52.98 52.89 52.81 52.81 52.89 53.03 53.07 53.08 53.04 53.11 53.41 53.54 53.67 53.81
96.60 -9.74 -1133.64 16457.49 145.15 7.33 52.76 53.32 53.98 53.98 53.95 53.74 53.77 53.72 53.39 53.54 53.44 53.28 53.12 52.98 52.89 52.76 52.76 52.86 52.96 53.00 53.00 53.02 53.08 53.36 53.54 53.67 53.86
96.55 -9.74 -1133.64 16538.89 145.24 7.51 52.73 53.32 53.95 53.93 53.95 53.76 53.77 53.75 53.49 53.56 53.49 53.26 53.10 52.98 52.87 52.74 52.73 52.86 52.98 53.02 53.03 53.02 53.08 53.36 53.51 53.63 53.79
96.50 -9.74 -1133.64 16491.86 145.30 7.41 52.73 53.30 53.93 53.93 53.92 53.74 53.77 53.68 53.41 53.59 53.46 53.28 53.14 52.98 52.87 52.74 52.73 52.84 52.98 52.97 53.00 52.97 53.06 53.36 53.49 53.60 53.79
96.45 -9.84 -1129.15 16449.25 145.59 7.41 52.73 53.30 53.92 53.90 53.92 53.76 53.77 53.75 53.41 53.51 53.46 53.23 53.10 52.98 52.87 52.74 52.73 52.81 52.98 52.97 52.93 52.97 53.03 53.36 53.49 53.65 53.79
96.40 -9.84 -1133.64 16500.91 144.98 7.41 52.71 53.31 53.95 53.93 53.95 53.76 53.77 53.75 53.54 53.54 53.49 53.28 53.12 52.96 52.87 52.71 52.71 52.81 52.96 53.00 53.00 52.99 53.06 53.34 53.51 53.63 53.84
96.35 -9.84 -1133.64 16560.14 145.26 7.12 52.69 53.31 54.00 54.00 54.00 53.81 53.82 53.79 53.51 53.59 53.51 53.28 53.10 52.96 52.84 52.69 52.71 52.81 52.96 52.95 52.96 52.94 53.01 53.29 53.49 53.65 53.88
96.30 -9.74 -1133.64 16578.08 145.34 7.12 52.69 53.30 53.93 53.93 53.92 53.76 53.80 53.77 53.44 53.59 53.49 53.30 53.14 52.96 52.84 52.69 52.71 52.81 52.96 52.95 52.96 52.94 53.01 53.31 53.47 53.63 53.84
96.25 -9.74 -1129.15 16497.98 145.73 7.51 52.71 53.31 53.98 53.98 53.95 53.84 53.80 53.70 53.46 53.56 53.49 53.33 53.17 53.01 52.87 52.74 52.71 52.76 52.96 52.92 52.93 52.89 53.01 53.31 53.51 53.65 53.88
96.20 -9.74 -1133.64 16429.09 146.31 7.51 52.66 53.32 54.02 54.02 54.00 53.84 53.82 53.75 53.44 53.59 53.53 53.33 53.14 52.96 52.82 52.69 52.66 52.79 52.91 52.92 52.93 52.97 53.06 53.41 53.54 53.70 53.93
96.15 -9.73 -1133.64 16493.01 147.41 7.51 52.66 53.32 54.07 54.07 54.02 53.81 53.77 53.70 53.36 53.51 53.46 53.23 53.10 52.94 52.79 52.66 52.66 52.81 52.86 52.92 52.93 52.99 53.13 53.48 53.63 53.79 53.98
96.10 -9.73 -1129.15 16495.42 147.54 7.51 52.57 53.32 54.19 54.19 54.09 53.95 53.89 53.75 53.41 53.61 53.46 53.23 53.05 52.89 52.77 52.59 52.57 52.74 52.83 52.85 52.88 52.97 53.11 53.48 53.63 53.81 54.03
96.05 -9.73 -1133.64 16444.31 147.91 7.35 52.57 53.31 54.07 54.07 54.04 53.88 53.80 53.68 53.34 53.56 53.41 53.21 53.07 52.89 52.74 52.59 52.57 52.74 52.83 52.88 52.91 52.99 53.16 53.50 53.66 53.81 54.03
