~Version Information
VERS.                      2.0: CWLS Log ASCII Standard - VERSION 2.0
WRAP.                       NO: One line per depth step
#Non standard LAS - data should be wrapped
~Well Information Block
STRT.M                  140.00: START DEPTH
STOP.M                   80.00: STOP DEPTH
STEP.M                 -0.0500: STEP
NULL.                -999.2500: NULL VALUE
COMP.                         : COMPANY
WELL.                         : WELL
FLD.                          : FIELD
LOC.                          : LOCATION
DATE.         26 05-38-47 2014: LOG DATE
~Curve Information Block
DEPT.M             0 000 00 00: Depth
LSPD.M/MIN                   0: Line Speed
LTEN.KG                      0: Surface Line Tension
CCL.                        0: Casing Collar Locator
GR.GAPI                     0: Gamma Ray
WTEMP.DEGC                  0: GTC Well Temperature
MNRD.MM                      0: Min Radius
AVRD.MM                      0: Avg Radius
MXRD.MM                      0: Max Radius
R01.MM                       0: Radius 01
R02.MM                       0: Radius 02
R03.MM                       0: Radius 03
R04.MM                       0: Radius 04
R05.MM                       0: Radius 05
R06.MM                       0: Radius 06
R07.MM                       0: Radius 07
R08.MM                       0: Radius 08
R09.MM                       0: Radius 09
R10.MM                       0: Radius 10
R11.MM                       0: Radius 11
R12.MM                       0: Radius 12
R13.MM                       0: Radius 13
R14.MM                       0: Radius 14
R15.MM                       0: Radius 15
R16.MM                       0: Radius 16
R17.MM                       0: Radius 17
R18.MM                       0: Radius 18
R19.MM                       0: Radius 19
R20.MM                       0: Radius 20
R21.MM                       0: Radius 21
R22.MM                       0: Radius 22
R23.MM                       0: Radius 23
R24.MM                       0: Radius 24
~A  Depth   LSPD LTEN     CCL       GR    WTemp MNRD   AVRD   MXRD    R01    R02    R03    R04    R05    R06    R07    R08    R09    R10    R11    R12    R13    R14    R15    R16    R17    R18    R19    R20    R21    R22    R23    R24
# ...
90.00 -9.79 -1129.15 16502.14 109.41 7.28 53.53 54.02 54.46 54.41 53.83 54.10 54.27 54.37 54.38 54.20 53.98 53.83 53.70 53.74 53.70 53.59 53.53 53.65 53.63 53.80 54.04 54.13 54.12 54.29 54.32 54.37 54.46
89.95 -9.83 -1129.15 16495.02 108.15 7.15 53.55 54.02 54.46 54.41 53.83 54.07 54.27 54.40 54.41 54.18 54.00 53.83 53.70 53.74 53.70 53.59 53.55 53.67 53.65 53.82 54.04 54.10 54.12 54.29 54.32 54.42 54.46
89.90 -9.83 -1133.64 16460.72 107.45 7.15 53.58 54.03 54.48 54.38 53.83 54.07 54.27 54.40 54.41 54.16 54.00 53.83 53.72 53.74 53.70 53.59 53.58 53.65 53.65 53.82 54.06 54.13 54.14 54.32 54.34 54.42 54.48
89.85 -9.83 -1133.64 16503.94 106.55 7.20 53.58 54.04 54.48 54.38 53.83 54.10 54.29 54.42 54.43 54.18 54.02 53.87 53.72 53.74 53.70 53.61 53.58 53.65 53.65 53.80 54.02 54.13 54.14 54.32 54.34 54.44 54.48
89.80 -9.83 -1133.64 16484.98 104.82 7.30 53.60 54.04 54.46 54.36 53.78 54.12 54.29 54.40 54.38 54.20 53.98 53.85 53.75 53.76 53.73 53.64 53.60 53.67 53.65 53.82 54.06 54.15 54.14 54.29 54.34 54.42 54.46
89.75 -9.86 -1133.64 16539.07 103.47 7.30 53.60 54.04 54.48 54.33 53.81 54.07 54.27 54.42 54.38 54.16 54.05 53.87 53.75 53.78 53.75 53.64 53.60 53.67 53.65 53.82 54.09 54.13 54.12 54.32 54.36 54.42 54.48
89.70 -9.86 -1133.64 16474.38 102.56 7.07 53.60 54.04 54.46 54.33 53.76 54.07 54.29 54.42 54.38 54.16 54.02 53.90 53.75 53.81 53.75 53.64 53.60 53.70 53.68 53.85 54.06 54.13 54.14 54.32 54.34 54.42 54.46
89.65 -9.86 -1129.15 16508.76 102.25 7.07 53.62 54.04 54.48 54.31 53.76 54.07 54.29 54.40 54.38 54.20 54.02 53.87 53.75 53.81 53.75 53.69 53.62 53.70 53.65 53.85 54.06 54.13 54.14 54.32 54.34 54.42 54.48
89.60 -9.78 -1129.15 16519.41 101.58 6.92 53.62 54.06 54.46 54.36 53.83 54.10 54.34 54.44 54.43 54.23 54.02 53.90 53.77 53.81 53.80 53.69 53.62 53.70 53.65 53.85 54.09 54.13 54.14 54.32 54.34 54.40 54.46
89.55 -9.78 -1133.64 16507.82 101.09 7.28 53.62 54.05 54.46 54.29 53.83 54.12 54.34 54.42 54.38 54.23 54.02 53.90 53.77 53.81 53.78 53.69 53.62 53.67 53.65 53.85 54.06 54.13 54.12 54.29 54.32 54.42 54.46
89.50 -9.78 -1133.64 16491.81 100.61 7.28 53.62 54.06 54.47 54.31 53.85 54.12 54.34 54.47 54.43 54.20 54.05 53.90 53.77 53.83 53.78 53.69 53.62 53.67 53.68 53.87 54.09 54.13 54.12 54.29 54.32 54.40 54.46
89.45 -9.84 -1129.15 16476.58 100.64 7.10 53.65 54.06 54.46 54.33 53.88 54.15 54.36 54.44 54.41 54.23 54.05 53.90 53.77 53.83 53.78 53.69 53.65 53.67 53.68 53.85 54.06 54.10 54.09 54.29 54.32 54.37 54.46
89.40 -9.84 -1129.15 16541.50 100.30 7.41 53.65 54.05 54.47 54.24 53.85 54.08 54.32 54.47 54.38 54.18 54.07 53.90 53.77 53.83 53.80 53.71 53.65 53.67 53.65 53.85 54.06 54.11 54.09 54.27 54.29 54.40 54.43
89.35 -9.84 -1133.64 16477.95 100.87 7.41 53.65 54.05 54.44 54.26 53.88 54.15 54.36 54.44 54.38 54.25 54.02 53.92 53.79 53.86 53.80 53.69 53.65 53.70 53.65 53.85 54.06 54.11 54.09 54.25 54.27 54.37 54.43
89.30 -9.84 -1129.15 16470.02 102.13 7.17 53.60 54.05 54.44 54.33 53.95 54.17 54.39 54.44 54.41 54.23 54.05 53.92 53.79 53.86 53.80 53.66 53.60 53.67 53.65 53.85 54.09 54.08 54.09 54.25 54.27 54.35 54.41
89.25 -9.87 -1133.64 16522.02 103.38 7.23 53.60 54.04 54.44 54.26 53.92 54.12 54.34 54.44 54.38 54.20 54.05 53.92 53.82 53.86 53.78 53.66 53.60 53.65 53.63 53.82 54.06 54.08 54.05 54.22 54.22 54.37 54.43
89.20 -9.87 -1133.64 16550.84 104.96 7.23 53.62 54.06 54.49 54.29 54.00 54.15 54.39 54.49 54.43 54.20 54.09 53.90 53.82 53.83 53.78 53.66 53.62 53.65 53.63 53.82 54.09 54.11 54.07 54.22 54.27 54.40 54.43
89.15 -9.87 -1133.64 16491.66 106.50 7.00 53.63 54.05 54.47 54.26 53.97 54.12 54.36 54.47 54.41 54.18 54.07 53.92 53.82 53.86 53.83 53.69 53.63 53.67 53.65 53.82 54.09 54.08 54.05 54.25 54.27 54.37 54.43
89.10 -9.79 -1129.15 16436.96 108.42 7.15 53.60 54.05 54.44 54.26 54.04 54.15 54.36 54.44 54.41 54.20 54.02 53.87 53.79 53.83 53.78 53.64 53.60 53.70 53.68 53.87 54.06 54.08 54.05 54.22 54.27 54.40 54.43
89.05 -9.79 -1133.64 16535.12 110.82 7.15 53.63 54.03 54.40 54.19 53.97 54.08 54.27 54.38 54.36 54.13 53.98 53.85 53.77 53.81 53.75 53.64 53.63 53.75 53.68 53.92 54.09 54.11 54.07 54.22 54.27 54.40 54.39
89.00 -9.79 -1129.15 16545.41 113.91 7.20 53.60 54.03 54.40 54.17 54.00 54.12 54.29 54.38 54.36 54.13 53.95 53.83 53.75 53.78 53.75 53.64 53.60 53.72 53.70 53.92 54.11 54.11 54.10 54.25 54.27 54.40 54.39
88.95 -9.84 -1133.64 16506.53 117.97 7.23 53.63 54.02 54.39 54.14 54.02 54.12 54.29 54.38 54.36 54.08 53.93 53.80 53.70 53.78 53.73 53.64 53.63 53.75 53.70 53.92 54.11 54.11 54.10 54.27 54.27 54.37 54.39
88.90 -9.84 -1133.64 16462.29 121.90 7.23 53.59 54.01 54.40 54.10 54.00 54.08 54.22 54.35 54.34 54.01 53.95 53.78 53.67 53.76 53.70 53.59 53.60 53.72 53.73 53.95 54.11 54.13 54.14 54.27 54.29 54.40 54.39
88.85 -9.84 -1129.15 16518.88 124.96 7.20 53.56 54.00 54.40 54.10 54.02 54.12 54.25 54.31 54.29 54.06 53.86 53.73 53.65 53.71 53.65 53.56 53.60 53.70 53.73 53.92 54.14 54.13 54.12 54.29 54.29 54.40 54.39
88.80 -9.84 -1133.64 16539.73 128.45 7.17 53.56 54.00 54.41 54.14 54.04 54.15 54.27 54.33 54.29 54.04 53.88 53.75 53.67 53.69 53.65 53.56 53.60 53.67 53.70 53.87 54.11 54.11 54.12 54.32 54.29 54.37 54.41
88.75 -9.87 -1129.15 16542.23 130.94 7.17 53.56 54.01 54.37 54.14 54.07 54.15 54.29 54.35 54.36 54.01 53.88 53.75 53.67 53.71 53.68 53.56 53.60 53.70 53.70 53.90 54.11 54.11 54.12 54.29 54.29 54.37 54.36
88.70 -9.87 -1129.15 16451.99 133.63 7.17 53.56 54.01 54.40 54.14 54.07 54.12 54.27 54.40 54.34 54.01 53.93 53.78 53.67 53.71 53.65 53.56 53.60 53.70 53.70 53.90 54.11 54.08 54.12 54.29 54.29 54.40 54.39
88.65 -9.87 -1133.64 16482.48 136.10 7.23 53.51 53.99 54.40 54.12 54.09 54.12 54.27 54.40 54.31 54.01 53.93 53.78 53.67 53.71 53.65 53.51 53.55 53.67 53.70 53.87 54.09 54.03 54.07 54.27 54.25 54.37 54.39
88.60 -9.78 -1133.64 16512.02 137.90 7.23 53.54 54.00 54.42 54.12 54.09 54.15 54.32 54.42 54.34 54.06 53.93 53.80 53.67 53.71 53.65 53.54 53.55 53.65 53.70 53.87 54.06 54.03 54.07 54.27 54.27 54.37 54.36
88.55 -9.78 -1133.64 16528.10 138.88 7.28 53.54 54.01 54.47 54.12 54.11 54.17 54.36 54.47 54.36 54.06 53.98 53.83 53.70 53.71 53.65 53.54 53.55 53.63 53.65 53.82 54.04 54.03 54.07 54.27 54.27 54.40 54.39
88.50 -9.78 -1133.64 16467.49 138.97 7.25 53.54 54.00 54.45 54.12 54.11 54.17 54.39 54.45 54.34 54.08 53.93 53.83 53.70 53.71 53.65 53.54 53.55 53.63 53.65 53.80 54.04 54.01 54.05 54.27 54.27 54.37 54.39
88.45 -9.88 -1133.64 16482.14 137.99 7.25 53.54 54.00 54.45 54.05 54.09 54.12 54.32 54.45 54.31 54.06 53.98 53.85 53.75 53.74 53.68 53.54 53.55 53.63 53.65 53.85 54.04 54.01 54.07 54.27 54.25 54.40 54.39
88.40 -9.88 -1133.64 16514.24 137.28 7.17 53.51 54.00 54.42 54.05 54.11 54.15 54.34 54.42 54.31 54.08 53.95 53.85 53.75 53.74 53.65 53.51 53.55 53.63 53.65 53.82 54.02 53.99 54.05 54.29 54.27 54.40 54.41
88.35 -9.88 -1133.64 16517.87 136.84 7.15 53.54 54.01 54.45 54.07 54.11 54.15 54.32 54.45 54.34 54.08 54.00 53.87 53.75 53.74 53.65 53.54 53.55 53.65 53.68 53.85 54.02 54.01 54.07 54.27 54.27 54.40 54.39
88.30 -9.88 -1133.64 16445.30 136.31 7.15 53.54 54.03 54.47 54.07 54.16 54.17 54.36 54.47 54.38 54.13 54.03 53.87 53.77 53.76 53.65 53.54 53.55 53.65 53.65 53.82 54.02 54.03 54.07 54.29 54.29 54.44 54.41
88.25 -9.84 -1129.15 16461.03 136.05 7.17 53.54 54.01 54.47 54.07 54.14 54.15 54.34 54.47 54.36 54.08 54.03 53.85 53.75 53.74 53.65 53.54 53.55 53.65 53.65 53.82 53.99 54.01 54.05 54.29 54.32 54.42 54.43
88.20 -9.84 -1133.64 16531.86 135.32 7.23 53.54 54.02 54.47 54.00 54.16 54.19 54.36 54.47 54.34 54.11 54.00 53.83 53.75 53.76 53.65 53.54 53.55 53.63 53.65 53.85 54.02 54.03 54.07 54.29 54.32 54.44 54.41
88.15 -9.84 -1133.64 16517.93 134.39 7.23 53.54 54.03 54.47 54.05 54.21 54.22 54.41 54.47 54.38 54.11 53.98 53.83 53.75 53.74 53.68 53.54 53.55 53.65 53.65 53.82 54.02 54.03 54.10 54.32 54.34 54.47 54.43
88.10 -9.77 -1133.64 16449.61 133.77 7.07 53.54 54.02 54.47 54.00 54.19 54.24 54.36 54.47 54.36 54.06 53.96 53.80 53.72 53.76 53.65 53.54 53.58 53.63 53.65 53.82 53.99 54.06 54.10 54.32 54.32 54.47 54.43
88.05 -9.77 -1133.64 16482.50 132.70 7.07 53.54 54.02 54.47 53.95 54.16 54.22 54.34 54.40 54.31 54.06 53.96 53.83 53.72 53.74 53.65 53.54 53.58 53.65 53.68 53.87 54.02 54.08 54.12 54.32 54.34 54.47 54.43
