~Version Information
VERS.                      2.0: CWLS Log ASCII Standard - VERSION 2.0
WRAP.                       NO: One line per depth step
#Non standard LAS - data should be wrapped
~Well Information Block
STRT.M                  140.00: START DEPTH
STOP.M                   80.00: STOP DEPTH
STEP.M                 -0.0500: STEP
NULL.                -999.2500: NULL VALUE
COMP.                         : COMPANY
WELL.                         : WELL
FLD.                          : FIELD
LOC.                          : LOCATION
DATE.         26 05-38-47 2014: LOG DATE
~Curve Information Block
DEPT.M             0 000 00 00: Depth
LSPD.M/MIN                   0: Line Speed
LTEN.KG                      0: Surface Line Tension
CCL.                        0: Casing Collar Locator
GR.GAPI                     0: Gamma Ray
WTEMP.DEGC                  0: GTC Well Temperature
MNRD.MM                      0: Min Radius
AVRD.MM                      0: Avg Radius
MXRD.MM                      0: Max Radius
R01.MM                       0: Radius 01
R02.MM                       0: Radius 02
R03.MM                       0: Radius 03
R04.MM                       0: Radius 04
R05.MM                       0: Radius 05
R06.MM                       0: Radius 06
R07.MM                       0: Radius 07
R08.MM                       0: Radius 08
R09.MM                       0: Radius 09
R10.MM                       0: Radius 10
R11.MM                       0: Radius 11
R12.MM                       0: Radius 12
R13.MM                       0: Radius 13
R14.MM                       0: Radius 14
R15.MM                       0: Radius 15
R16.MM                       0: Radius 16
R17.MM                       0: Radius 17
R18.MM                       0: Radius 18
R19.MM                       0: Radius 19
R20.MM                       0: Radius 20
R21.MM                       0: Radius 21
R22.MM                       0: Radius 22
R23.MM                       0: Radius 23
R24.MM                       0: Radius 24
~A  Depth   LSPD LTEN     CCL       GR    WTemp MNRD   AVRD   MXRD    R01    R02    R03    R04    R05    R06    R07    R08    R09    R10    R11    R12    R13    R14    R15    R16    R17    R18    R19    R20    R21    R22    R23    R24
# ...
112.00 -9.84 -1129.15 16569.61 137.89 7.92 53.55 54.07 54.51 54.40 54.44 54.24 54.39 54.51 54.41 54.15 54.07 53.96 53.74 53.69 53.55 53.56 53.60 53.65 53.68 53.92 54.04 54.08 54.12 54.25 54.32 54.44 54.50
111.95 -9.84 -1129.15 16498.47 134.88 8.07 53.61 54.07 54.54 54.40 54.44 54.26 54.43 54.54 54.45 54.18 54.12 54.01 53.81 53.76 53.63 53.61 53.62 53.65 53.70 53.90 54.01 54.03 54.07 54.20 54.24 54.40 54.31
111.90 -9.84 -1133.64 16484.48 133.11 8.07 53.58 54.07 54.56 54.40 54.44 54.29 54.46 54.56 54.45 54.22 54.14 53.99 53.79 53.76 53.63 53.58 53.62 53.65 53.70 53.90 53.99 54.01 54.07 54.20 54.24 54.33 54.24
111.85 -9.84 -1133.64 16529.42 129.76 8.05 53.58 54.04 54.54 54.33 54.42 54.26 54.46 54.54 54.41 54.18 54.12 53.99 53.79 53.76 53.63 53.58 53.60 53.65 53.70 53.85 53.97 53.98 54.02 54.18 54.22 54.28 54.12
111.80 -9.77 -1133.64 16568.08 127.26 7.71 53.60 54.05 54.54 54.40 54.44 54.33 54.50 54.54 54.43 54.25 54.07 53.99 53.81 53.73 53.63 53.61 53.60 53.62 53.70 53.85 53.97 53.98 54.02 54.18 54.22 54.30 53.98
111.75 -9.77 -1133.64 16481.76 125.08 7.71 53.60 54.03 54.54 54.33 54.44 54.31 54.48 54.54 54.41 54.22 54.07 53.99 53.79 53.73 53.63 53.61 53.60 53.62 53.68 53.82 53.92 53.91 54.00 54.18 54.20 54.28 53.91
111.70 -9.77 -1133.64 16502.20 122.89 8.12 53.56 54.01 54.54 54.33 54.42 54.31 54.48 54.54 54.41 54.18 54.02 53.94 53.77 53.73 53.63 53.56 53.62 53.60 53.68 53.80 53.89 53.94 54.02 54.20 54.20 54.28 53.81
111.65 -9.79 -1133.64 16479.71 121.45 7.64 53.56 54.02 54.56 54.36 54.47 54.41 54.55 54.56 54.41 54.22 54.02 53.92 53.74 53.71 53.60 53.56 53.58 53.57 53.68 53.82 53.92 53.96 54.05 54.18 54.22 54.30 53.76
111.60 -9.79 -1133.64 16505.52 120.57 7.64 53.46 54.01 54.58 54.43 54.51 54.43 54.57 54.58 54.41 54.20 54.00 53.85 53.67 53.64 53.47 53.46 53.50 53.53 53.65 53.80 53.89 53.96 54.05 54.22 54.27 54.35 53.86
111.55 -9.79 -1129.15 16471.03 119.95 7.94 53.46 54.01 54.56 54.43 54.51 54.38 54.53 54.56 54.41 54.18 54.00 53.87 53.67 53.61 53.47 53.46 53.50 53.53 53.65 53.80 53.89 53.96 54.07 54.22 54.27 54.35 53.93
111.50 -9.84 -1133.64 16501.62 119.47 7.79 53.36 54.01 54.59 54.50 54.59 54.41 54.57 54.58 54.48 54.20 54.02 53.85 53.65 53.54 53.42 53.36 53.41 53.45 53.60 53.75 53.89 53.98 54.12 54.25 54.32 54.42 53.98
111.45 -9.84 -1133.64 16444.73 119.80 7.79 53.36 54.01 54.58 54.52 54.56 54.38 54.53 54.58 54.43 54.13 54.02 53.82 53.65 53.52 53.40 53.36 53.41 53.45 53.60 53.75 53.92 53.98 54.12 54.27 54.36 54.47 54.12
111.40 -9.84 -1133.64 16516.78 121.19 7.82 53.36 54.02 54.56 54.55 54.56 54.41 54.53 54.54 54.45 54.15 54.00 53.82 53.62 53.52 53.40 53.36 53.41 53.43 53.58 53.77 53.92 54.01 54.14 54.29 54.36 54.44 54.26
111.35 -9.75 -1129.15 16524.39 122.51 7.84 53.38 54.00 54.49 54.48 54.49 54.31 54.41 54.44 54.38 54.08 53.95 53.82 53.62 53.54 53.40 53.38 53.38 53.45 53.60 53.77 53.92 54.01 54.14 54.29 54.34 54.44 54.41
111.30 -9.75 -1133.64 16497.73 123.65 7.84 53.36 54.02 54.62 54.55 54.54 54.31 54.43 54.47 54.41 54.06 53.95 53.80 53.62 53.52 53.40 53.36 53.41 53.48 53.60 53.75 53.92 54.01 54.12 54.29 54.36 54.47 54.62
111.25 -9.75 -1133.64 16513.32 124.84 7.92 53.37 54.02 54.74 54.50 54.49 54.31 54.39 54.40 54.36 54.11 53.91 53.82 53.65 53.52 53.37 53.38 53.41 53.50 53.60 53.77 53.92 54.03 54.12 54.29 54.34 54.47 54.74
111.20 -9.75 -1133.64 16478.15 126.09 7.79 53.40 54.03 54.74 54.50 54.49 54.24 54.39 54.44 54.41 54.08 53.95 53.82 53.65 53.54 53.40 53.41 53.46 53.57 53.63 53.85 53.97 54.03 54.12 54.25 54.32 54.44 54.74
111.15 -9.78 -1133.64 16539.55 127.12 7.79 53.45 54.03 54.81 54.45 54.40 54.19 54.34 54.37 54.38 54.08 53.93 53.85 53.65 53.56 53.45 53.46 53.50 53.60 53.65 53.85 53.99 54.08 54.14 54.22 54.29 54.44 54.81
111.10 -9.78 -1129.15 16473.68 128.35 7.82 53.45 54.02 54.77 54.38 54.40 54.14 54.31 54.42 54.38 54.06 53.98 53.85 53.67 53.59 53.45 53.48 53.50 53.62 53.65 53.85 53.99 54.06 54.12 54.20 54.24 54.40 54.77
111.05 -9.78 -1129.15 16483.11 129.80 7.79 53.50 54.03 54.69 54.33 54.33 54.17 54.31 54.40 54.36 54.15 53.98 53.89 53.70 53.61 53.50 53.51 53.55 53.65 53.65 53.87 53.99 54.06 54.09 54.18 54.24 54.40 54.69
111.00 -9.83 -1133.64 16488.65 130.92 7.79 53.52 54.03 54.58 54.33 54.35 54.17 54.36 54.44 54.36 54.15 54.00 53.94 53.74 53.66 53.52 53.53 53.58 53.62 53.65 53.87 53.99 54.01 54.07 54.20 54.24 54.35 54.58
110.95 -9.83 -1133.64 16503.88 130.85 8.00 53.53 54.02 54.49 54.31 54.33 54.17 54.36 54.49 54.36 54.15 54.02 53.96 53.77 53.66 53.55 53.53 53.58 53.60 53.65 53.85 53.97 54.03 54.07 54.20 54.22 54.37 54.38
110.90 -9.83 -1129.15 16488.79 129.83 7.92 53.56 54.04 54.54 54.33 54.37 54.22 54.41 54.54 54.41 54.18 54.09 53.99 53.79 53.73 53.60 53.56 53.58 53.60 53.65 53.85 53.97 54.01 54.05 54.15 54.22 54.35 54.24
110.85 -9.75 -1133.64 16480.09 128.27 7.92 53.58 54.04 54.51 54.33 54.37 54.26 54.43 54.51 54.41 54.27 54.09 53.99 53.79 53.73 53.60 53.58 53.58 53.62 53.65 53.87 53.97 54.03 54.07 54.20 54.24 54.33 54.12
110.80 -9.75 -1129.15 16535.56 126.58 7.92 53.58 54.04 54.51 54.31 54.37 54.24 54.43 54.51 54.41 54.27 54.09 54.01 53.81 53.76 53.63 53.58 53.60 53.65 53.68 53.87 53.97 54.03 54.07 54.18 54.24 54.35 53.95
110.75 -9.75 -1129.15 16565.55 124.45 7.84 53.58 54.06 54.56 54.38 54.42 54.26 54.46 54.56 54.45 54.25 54.14 53.99 53.81 53.73 53.60 53.58 53.60 53.62 53.65 53.87 53.99 54.06 54.12 54.22 54.29 54.37 53.93
110.70 -9.82 -1133.64 16487.99 121.77 7.84 53.56 54.04 54.51 54.36 54.44 54.26 54.43 54.51 54.41 54.20 54.05 53.96 53.79 53.71 53.57 53.56 53.58 53.65 53.65 53.85 53.97 54.06 54.14 54.27 54.32 54.40 53.95
110.65 -9.82 -1133.64 16600.06 119.32 7.66 53.53 54.07 54.58 54.45 54.51 54.33 54.50 54.58 54.45 54.25 54.12 53.94 53.74 53.73 53.57 53.53 53.55 53.60 53.68 53.87 53.99 54.08 54.16 54.27 54.36 54.44 53.86
110.60 -9.82 -1133.64 16546.98 116.45 7.84 53.51 54.06 54.51 54.50 54.51 54.38 54.50 54.51 54.41 54.20 54.05 53.89 53.72 53.69 53.55 53.51 53.53 53.55 53.68 53.85 53.99 54.08 54.16 54.32 54.41 54.49 53.98
110.55 -9.82 -1133.64 16454.80 113.88 7.84 53.51 54.07 54.54 54.48 54.51 54.36 54.50 54.54 54.41 54.18 54.07 53.92 53.72 53.64 53.52 53.51 53.55 53.55 53.65 53.87 54.01 54.13 54.21 54.36 54.43 54.51 54.00
110.50 -9.86 -1133.64 16481.29 112.03 7.82 53.46 54.08 54.59 54.55 54.59 54.43 54.55 54.54 54.43 54.22 54.02 53.89 53.70 53.64 53.52 53.46 53.50 53.53 53.65 53.87 54.01 54.13 54.24 54.39 54.43 54.51 54.03
110.45 -9.86 -1129.15 16475.72 110.70 7.92 53.43 54.08 54.59 54.57 54.59 54.41 54.55 54.58 54.45 54.20 54.07 53.87 53.67 53.59 53.47 53.43 53.48 53.53 53.65 53.85 54.01 54.13 54.24 54.43 54.48 54.54 54.17
110.40 -9.86 -1133.64 16515.56 109.72 7.92 53.46 54.07 54.56 54.52 54.54 54.38 54.50 54.49 54.38 54.18 54.00 53.87 53.67 53.61 53.47 53.46 53.48 53.57 53.68 53.87 54.01 54.13 54.24 54.43 54.48 54.56 54.24
110.35 -9.78 -1133.64 16517.45 108.63 7.79 53.43 54.07 54.58 54.55 54.54 54.38 54.48 54.51 54.38 54.15 54.00 53.85 53.65 53.59 53.47 53.43 53.46 53.53 53.68 53.87 54.06 54.18 54.26 54.41 54.48 54.58 54.26
110.30 -9.78 -1133.64 16500.72 108.18 7.79 53.41 54.10 54.67 54.67 54.63 54.43 54.53 54.54 54.43 54.18 54.00 53.82 53.65 53.54 53.42 53.41 53.43 53.53 53.65 53.90 54.06 54.18 54.28 54.43 54.53 54.63 54.53
110.25 -9.78 -1129.15 16466.05 107.74 8.02 53.36 54.10 54.67 54.64 54.59 54.41 54.53 54.51 54.41 54.20 53.98 53.85 53.62 53.54 53.40 53.36 53.43 53.53 53.65 53.90 54.06 54.20 54.28 54.43 54.53 54.63 54.67
110.20 -9.87 -1133.64 16511.91 107.60 7.66 53.38 54.09 54.77 54.60 54.56 54.38 54.46 54.49 54.38 54.20 53.98 53.82 53.62 53.54 53.42 53.38 53.46 53.53 53.65 53.90 54.09 54.15 54.26 54.43 54.53 54.61 54.77
110.15 -9.87 -1133.64 16522.40 107.19 7.66 53.40 54.09 54.81 54.60 54.54 54.36 54.46 54.49 54.38 54.15 53.98 53.82 53.62 53.56 53.40 53.41 53.43 53.55 53.65 53.90 54.06 54.18 54.26 54.41 54.48 54.63 54.81
110.10 -9.87 -1129.15 16463.77 106.86 8.02 53.40 54.09 54.89 54.57 54.54 54.31 54.46 54.54 54.43 54.15 54.02 53.82 53.62 53.56 53.40 53.41 53.43 53.57 53.68 53.92 54.06 54.20 54.26 54.39 54.46 54.58 54.89
110.05 -9.87 -1129.15 16463.16 106.10 7.94 53.47 54.09 54.79 54.48 54.49 54.31 54.48 54.54 54.43 54.18 54.02 53.87 53.67 53.59 53.47 53.48 53.53 53.60 53.70 53.94 54.06 54.15 54.21 54.32 54.39 54.51 54.79
