~Version Information
VERS.                      2.0: CWLS Log ASCII Standard - VERSION 2.0
WRAP.                       NO: One line per depth step
#Non standard LAS - data should be wrapped
~Well Information Block
STRT.M                  140.00: START DEPTH
STOP.M                   80.00: STOP DEPTH
STEP.M                 -0.0500: STEP
NULL.                -999.2500: NULL VALUE
COMP.                         : COMPANY
WELL.                         : WELL
FLD.                          : FIELD
LOC.                          : LOCATION
DATE.         26 05-38-47 2014: LOG DATE
~Curve Information Block
DEPT.M             0 000 00 00: Depth
LSPD.M/MIN                   0: Line Speed
LTEN.KG                      0: Surface Line Tension
CCL.                        0: Casing Collar Locator
GR.GAPI                     0: Gamma Ray
WTEMP.DEGC                  0: GTC Well Temperature
MNRD.MM                      0: Min Radius
AVRD.MM                      0: Avg Radius
MXRD.MM                      0: Max Radius
R01.MM                       0: Radius 01
R02.MM                       0: Radius 02
R03.MM                       0: Radius 03
R04.MM                       0: Radius 04
R05.MM                       0: Radius 05
R06.MM                       0: Radius 06
R07.MM                       0: Radius 07
R08.MM                       0: Radius 08
R09.MM                       0: Radius 09
R10.MM                       0: Radius 10
R11.MM                       0: Radius 11
R12.MM                       0: Radius 12
R13.MM                       0: Radius 13
R14.MM                       0: Radius 14
R15.MM                       0: Radius 15
R16.MM                       0: Radius 16
R17.MM                       0: Radius 17
R18.MM                       0: Radius 18
R19.MM                       0: Radius 19
R20.MM                       0: Radius 20
R21.MM                       0: Radius 21
R22.MM                       0: Radius 22
R23.MM                       0: Radius 23
R24.MM                       0: Radius 24
~A  Depth   LSPD LTEN     CCL       GR    WTemp MNRD   AVRD   MXRD    R01    R02    R03    R04    R05    R06    R07    R08    R09    R10    R11    R12    R13    R14    R15    R16    R17    R18    R19    R20    R21    R22    R23    R24
# ...
132.00 -9.18 -1129.15 16458.23 62.04 8.46 51.92 52.30 52.70 52.63 52.68 52.32 52.52 52.63 52.59 52.30 52.19 52.02 52.01 52.04 52.09 51.96 51.92 52.00 52.12 52.06 52.19 52.26 52.29 52.52 52.50 52.60 52.70
131.95 -9.18 -1133.64 16483.90 60.89 8.46 51.92 52.30 52.70 52.63 52.70 52.37 52.54 52.66 52.64 52.35 52.19 52.02 52.03 52.02 52.06 51.96 51.92 52.00 52.12 52.03 52.16 52.23 52.29 52.52 52.48 52.58 52.70
131.90 -9.12 -1133.64 16445.64 60.01 8.35 51.90 52.30 52.73 52.63 52.73 52.34 52.54 52.68 52.67 52.32 52.24 52.04 52.01 52.04 52.09 51.96 51.90 52.00 52.09 52.06 52.16 52.23 52.27 52.52 52.48 52.58 52.68
131.85 -9.12 -1133.64 16577.76 59.59 8.38 51.90 52.30 52.68 52.61 52.68 52.34 52.54 52.66 52.62 52.35 52.19 52.02 52.01 52.04 52.09 51.96 51.90 51.98 52.07 52.03 52.21 52.23 52.29 52.55 52.48 52.58 52.68
131.80 -9.12 -1133.64 16514.50 59.08 8.38 51.90 52.28 52.70 52.58 52.65 52.27 52.47 52.61 52.59 52.27 52.14 51.99 52.01 52.07 52.09 51.96 51.90 51.98 52.09 52.01 52.21 52.23 52.32 52.52 52.48 52.58 52.70
131.75 -9.21 -1133.64 16582.32 59.03 8.28 51.87 52.28 52.68 52.61 52.65 52.29 52.49 52.61 52.59 52.27 52.14 51.94 51.98 52.02 52.04 51.96 51.87 52.00 52.09 52.01 52.24 52.26 52.32 52.52 52.48 52.58 52.68
131.70 -9.21 -1129.15 16484.32 59.32 8.20 51.90 52.27 52.68 52.61 52.65 52.27 52.44 52.61 52.59 52.22 52.17 51.94 51.98 52.02 52.06 51.96 51.90 52.00 52.07 52.01 52.21 52.23 52.27 52.47 52.45 52.56 52.68
131.65 -9.21 -1133.64 16495.60 59.90 8.20 51.90 52.28 52.70 52.66 52.70 52.34 52.54 52.66 52.62 52.27 52.22 51.97 51.98 51.99 52.04 51.96 51.90 51.98 52.12 52.03 52.24 52.23 52.27 52.45 52.45 52.56 52.68
131.60 -9.12 -1133.64 16408.00 60.75 8.20 51.85 52.26 52.68 52.61 52.65 52.34 52.52 52.58 52.56 52.30 52.14 51.99 51.98 51.97 52.04 51.90 51.85 51.95 52.07 51.96 52.21 52.21 52.24 52.47 52.45 52.53 52.68
131.55 -9.12 -1129.15 16624.65 62.15 8.25 51.80 52.25 52.68 52.58 52.65 52.29 52.49 52.63 52.59 52.27 52.17 51.99 51.98 51.97 52.04 51.85 51.80 51.88 51.99 51.93 52.19 52.23 52.27 52.52 52.48 52.56 52.68
131.50 -9.12 -1133.64 16525.74 63.78 8.25 51.80 52.26 52.68 52.61 52.68 52.27 52.49 52.66 52.62 52.27 52.24 52.02 52.01 52.04 52.04 51.85 51.80 51.85 51.96 51.91 52.16 52.26 52.27 52.50 52.48 52.58 52.68
131.45 -9.11 -1133.64 16529.18 65.55 8.30 51.77 52.25 52.68 52.61 52.65 52.29 52.49 52.63 52.56 52.27 52.19 51.99 52.01 51.99 51.98 51.83 51.77 51.83 51.96 51.91 52.19 52.26 52.29 52.50 52.48 52.63 52.68
131.40 -9.11 -1129.15 16456.58 66.87 8.41 51.75 52.26 52.73 52.66 52.68 52.29 52.49 52.58 52.56 52.30 52.14 51.94 51.96 51.97 51.98 51.83 51.75 51.88 51.96 51.93 52.24 52.30 52.34 52.57 52.53 52.63 52.73
131.35 -9.11 -1133.64 16440.34 67.71 8.41 51.80 52.25 52.73 52.61 52.63 52.27 52.44 52.56 52.56 52.22 52.12 51.92 51.98 51.97 51.96 51.85 51.80 51.88 51.99 51.96 52.24 52.28 52.34 52.60 52.55 52.63 52.73
131.30 -9.17 -1133.64 16401.93 67.99 8.28 51.80 52.25 52.73 52.63 52.65 52.24 52.42 52.58 52.54 52.20 52.14 51.92 51.98 51.97 51.96 51.85 51.80 51.93 51.99 51.96 52.26 52.28 52.34 52.57 52.53 52.65 52.73
131.25 -9.17 -1133.64 16480.69 67.96 8.48 51.80 52.27 52.73 52.63 52.68 52.27 52.47 52.61 52.59 52.22 52.17 51.92 51.96 51.99 51.98 51.85 51.80 51.93 51.99 52.01 52.31 52.30 52.37 52.57 52.58 52.65 52.73
131.20 -9.17 -1129.15 16572.06 67.64 8.48 51.80 52.26 52.75 52.63 52.63 52.24 52.42 52.58 52.56 52.20 52.12 51.92 51.96 51.99 51.98 51.88 51.80 51.93 51.99 52.01 52.29 52.30 52.37 52.57 52.58 52.65 52.75
131.15 -9.09 -1133.64 16561.13 66.80 8.33 51.80 52.27 52.75 52.66 52.65 52.32 52.47 52.58 52.54 52.25 52.12 51.92 51.93 51.94 51.98 51.85 51.80 51.88 51.99 52.01 52.31 52.28 52.37 52.57 52.58 52.65 52.75
131.10 -9.09 -1129.15 16449.48 65.91 8.25 51.80 52.26 52.75 52.63 52.65 52.29 52.47 52.58 52.54 52.20 52.12 51.89 51.91 51.97 51.98 51.88 51.80 51.90 51.99 52.01 52.31 52.28 52.34 52.57 52.60 52.68 52.75
131.05 -9.09 -1133.64 16467.03 64.61 8.25 51.80 52.28 52.78 52.68 52.68 52.29 52.49 52.63 52.56 52.20 52.14 51.92 51.93 51.97 51.96 51.85 51.80 51.93 51.96 51.98 52.29 52.30 52.39 52.60 52.60 52.70 52.78
131.00 -9.09 -1129.15 16531.95 63.12 8.41 51.82 52.29 52.83 52.76 52.75 52.34 52.52 52.63 52.59 52.22 52.17 51.92 51.93 51.97 51.96 51.85 51.82 51.90 51.99 51.98 52.29 52.28 52.34 52.60 52.60 52.70 52.83
130.95 -9.19 -1129.15 16411.17 62.32 8.41 51.80 52.29 52.83 52.73 52.73 52.34 52.52 52.66 52.59 52.22 52.17 51.94 51.93 51.94 51.93 51.83 51.80 51.88 51.99 52.01 52.31 52.30 52.37 52.60 52.63 52.70 52.83
130.90 -9.19 -1133.64 16608.46 60.88 8.07 51.80 52.28 52.80 52.73 52.73 52.37 52.54 52.63 52.56 52.27 52.12 51.94 51.93 51.94 51.96 51.83 51.80 51.90 51.96 51.96 52.24 52.26 52.34 52.55 52.60 52.73 52.80
130.85 -9.19 -1133.64 16592.38 59.73 8.41 51.75 52.28 52.80 52.71 52.75 52.39 52.57 52.71 52.59 52.25 52.19 51.99 51.96 51.97 51.96 51.80 51.75 51.83 51.96 51.96 52.24 52.26 52.32 52.57 52.60 52.68 52.80
130.80 -9.17 -1129.15 16454.42 59.12 8.41 51.75 52.29 52.85 52.78 52.80 52.42 52.61 52.71 52.64 52.27 52.22 51.99 51.96 51.94 51.96 51.80 51.75 51.80 51.94 51.91 52.19 52.18 52.32 52.60 52.63 52.70 52.85
130.75 -9.17 -1129.15 16446.23 58.29 8.23 51.72 52.31 52.83 52.81 52.83 52.50 52.66 52.81 52.69 52.32 52.27 51.99 51.98 51.97 51.98 51.77 51.72 51.83 51.96 51.88 52.16 52.18 52.29 52.57 52.60 52.70 52.83
130.70 -9.17 -1133.64 16447.55 57.89 8.25 51.72 52.29 52.83 52.81 52.83 52.47 52.64 52.81 52.69 52.30 52.27 51.99 51.98 51.97 51.96 51.80 51.72 51.80 51.94 51.88 52.11 52.16 52.27 52.52 52.58 52.70 52.80
130.65 -9.13 -1129.15 16495.04 57.93 8.25 51.72 52.29 52.80 52.76 52.78 52.47 52.64 52.76 52.67 52.35 52.24 52.04 51.98 51.99 51.96 51.77 51.72 51.83 51.91 51.86 52.09 52.16 52.27 52.55 52.58 52.68 52.80
130.60 -9.13 -1129.15 16475.70 58.18 8.41 51.72 52.29 52.83 52.78 52.83 52.47 52.66 52.81 52.69 52.32 52.29 52.04 51.98 51.97 51.96 51.77 51.72 51.80 51.91 51.83 52.09 52.13 52.22 52.52 52.53 52.68 52.83
130.55 -9.13 -1133.64 16580.75 58.94 8.23 51.72 52.30 52.83 52.78 52.83 52.50 52.69 52.83 52.72 52.39 52.31 52.04 52.01 51.99 52.01 51.80 51.72 51.77 51.91 51.83 52.09 52.13 52.24 52.52 52.53 52.65 52.80
130.50 -9.18 -1133.64 16481.16 59.91 8.23 51.75 52.27 52.78 52.71 52.75 52.39 52.61 52.78 52.69 52.35 52.27 52.04 52.03 52.04 52.01 51.83 51.75 51.83 51.89 51.83 52.06 52.11 52.19 52.50 52.53 52.60 52.78
130.45 -9.18 -1133.64 16510.96 60.87 8.23 51.72 52.29 52.81 52.73 52.80 52.44 52.66 52.81 52.72 52.35 52.29 52.04 52.03 52.04 52.01 51.80 51.72 51.80 51.89 51.86 52.09 52.13 52.22 52.50 52.50 52.63 52.78
130.40 -9.18 -1129.15 16454.65 62.00 8.46 51.75 52.27 52.76 52.68 52.75 52.42 52.59 52.76 52.67 52.37 52.27 52.07 52.03 52.04 52.01 51.83 51.75 51.80 51.89 51.81 52.06 52.11 52.19 52.47 52.48 52.58 52.75
130.35 -9.08 -1133.64 16512.13 63.23 8.46 51.72 52.26 52.78 52.66 52.75 52.37 52.61 52.78 52.72 52.35 52.29 52.07 52.03 52.04 52.01 51.80 51.72 51.83 51.86 51.81 52.06 52.13 52.19 52.45 52.48 52.58 52.70
130.30 -9.08 -1133.64 16625.42 64.45 8.23 51.75 52.25 52.71 52.63 52.70 52.37 52.57 52.71 52.69 52.39 52.27 52.07 52.03 52.04 52.01 51.85 51.75 51.80 51.89 51.81 52.06 52.11 52.17 52.45 52.45 52.56 52.70
130.25 -9.08 -1133.64 16527.00 65.72 8.23 51.75 52.25 52.71 52.58 52.65 52.32 52.52 52.71 52.64 52.35 52.29 52.07 52.03 52.04 52.01 51.85 51.75 51.83 51.89 51.83 52.11 52.13 52.19 52.42 52.43 52.58 52.68
130.20 -9.19 -1129.15 16582.20 66.78 8.23 51.80 52.25 52.68 52.58 52.65 52.32 52.54 52.68 52.64 52.37 52.24 52.04 52.06 52.07 52.04 51.88 51.80 51.85 51.89 51.83 52.16 52.13 52.19 52.45 52.45 52.56 52.68
130.15 -9.19 -1129.15 16512.90 67.69 8.12 51.80 52.27 52.69 52.61 52.65 52.29 52.52 52.68 52.69 52.37 52.29 52.04 52.03 52.09 52.06 51.90 51.80 51.90 51.91 51.91 52.21 52.18 52.24 52.45 52.45 52.56 52.65
130.10 -9.19 -1133.64 16422.12 68.57 8.12 51.82 52.26 52.66 52.58 52.63 52.24 52.47 52.66 52.64 52.30 52.27 52.04 52.06 52.07 52.06 51.90 51.82 51.90 51.91 51.91 52.24 52.18 52.24 52.45 52.48 52.58 52.65
130.05 -9.16 -1129.15 16466.19 68.92 8.12 51.82 52.28 52.68 52.61 52.65 52.24 52.47 52.66 52.64 52.30 52.27 52.07 52.03 52.07 52.06 51.90 51.82 51.93 51.94 51.93 52.36 52.26 52.29 52.50 52.50 52.56 52.68
