~Version Information
VERS.                      2.0: CWLS Log ASCII Standard - VERSION 2.0
WRAP.                       NO: One line per depth step
#Non standard LAS - data should be wrapped
~Well Information Block
STRT.M                  140.00: START DEPTH
STOP.M                   80.00: STOP DEPTH
STEP.M                 -0.0500: STEP
NULL.                -999.2500: NULL VALUE
COMP.                         : COMPANY
WELL.                         : WELL
FLD.                          : FIELD
LOC.                          : LOCATION
DATE.         26 05-38-47 2014: LOG DATE
~Curve Information Block
DEPT.M             0 000 00 00: Depth
LSPD.M/MIN                   0: Line Speed
LTEN.KG                      0: Surface Line Tension
CCL.                        0: Casing Collar Locator
GR.GAPI                     0: Gamma Ray
WTEMP.DEGC                  0: GTC Well Temperature
MNRD.MM                      0: Min Radius
AVRD.MM                      0: Avg Radius
MXRD.MM                      0: Max Radius
R01.MM                       0: Radius 01
R02.MM                       0: Radius 02
R03.MM                       0: Radius 03
R04.MM                       0: Radius 04
R05.MM                       0: Radius 05
R06.MM                       0: Radius 06
R07.MM                       0: Radius 07
R08.MM                       0: Radius 08
R09.MM                       0: Radius 09
R10.MM                       0: Radius 10
R11.MM                       0: Radius 11
R12.MM                       0: Radius 12
R13.MM                       0: Radius 13
R14.MM                       0: Radius 14
R15.MM                       0: Radius 15
R16.MM                       0: Radius 16
R17.MM                       0: Radius 17
R18.MM                       0: Radius 18
R19.MM                       0: Radius 19
R20.MM                       0: Radius 20
R21.MM                       0: Radius 21
R22.MM                       0: Radius 22
R23.MM                       0: Radius 23
R24.MM                       0: Radius 24
~A  Depth   LSPD LTEN     CCL       GR    WTemp MNRD   AVRD   MXRD    R01    R02    R03    R04    R05    R06    R07    R08    R09    R10    R11    R12    R13    R14    R15    R16    R17    R18    R19    R20    R21    R22    R23    R24
# ...
94.00 -9.82 -1133.64 16440.89 104.87 7.25 52.71 53.22 53.69 53.59 53.50 53.36 53.27 53.39 53.34 53.15 53.00 52.95 52.98 53.01 52.92 52.74 52.71 52.79 52.83 53.12 53.32 53.43 53.52 53.48 53.51 53.63 53.69
93.95 -9.82 -1129.15 16495.04 105.72 7.33 52.52 53.23 53.72 53.69 53.66 53.45 53.32 53.42 53.36 53.13 53.03 52.90 52.98 53.08 52.99 52.71 52.61 52.52 52.73 53.14 53.32 53.48 53.57 53.50 53.51 53.63 53.72
93.90 -9.82 -1133.64 16523.87 106.50 7.38 52.54 53.23 53.72 53.71 53.64 53.48 53.32 53.37 53.34 53.17 53.05 53.07 53.07 53.11 52.97 52.66 52.57 52.54 52.71 53.12 53.32 53.48 53.50 53.46 53.44 53.63 53.72
93.85 -9.73 -1133.64 16487.25 107.05 7.38 52.42 53.21 53.72 53.71 53.64 53.40 53.25 53.32 53.26 53.10 53.03 53.09 53.19 53.23 53.02 52.66 52.54 52.42 52.58 53.09 53.34 53.48 53.50 53.41 53.44 53.60 53.72
93.80 -9.73 -1133.64 16515.34 106.68 7.20 52.54 53.23 53.72 53.64 53.50 53.28 53.23 53.35 53.31 53.17 53.17 53.26 53.31 53.28 53.02 52.66 52.54 52.61 52.71 53.22 53.32 53.38 53.37 53.38 53.44 53.60 53.72
93.75 -9.73 -1129.15 16503.13 105.82 7.35 52.78 53.23 53.53 53.38 53.31 53.04 52.99 53.18 53.29 53.15 53.25 53.42 53.39 53.32 53.10 52.86 52.78 52.94 53.01 53.48 53.39 53.36 53.28 53.29 53.32 53.42 53.53
93.70 -9.79 -1133.64 16528.60 105.20 7.35 52.89 53.23 53.63 53.35 53.18 53.00 52.96 53.11 53.08 53.08 53.20 53.35 53.22 53.06 53.00 52.89 52.90 53.03 53.16 53.63 53.59 53.48 53.42 53.41 53.47 53.53 53.55
93.65 -9.79 -1129.15 16489.42 105.07 7.38 52.95 53.24 53.73 53.25 53.14 52.95 52.96 53.11 53.11 53.10 53.08 53.26 53.17 53.11 53.07 53.06 53.10 53.26 53.38 53.73 53.66 53.46 53.35 53.31 53.32 53.39 53.45
93.60 -9.79 -1129.15 16495.40 105.36 7.38 53.06 53.25 53.55 53.38 53.31 53.07 53.11 53.35 53.29 53.20 53.22 53.26 53.17 53.13 53.10 53.06 53.10 53.18 53.28 53.53 53.42 53.26 53.16 53.24 53.32 53.44 53.55
93.55 -9.79 -1133.64 16512.50 105.92 7.38 53.03 53.27 53.55 53.45 53.40 53.24 53.30 53.51 53.46 53.39 53.29 53.21 53.22 53.23 53.17 53.06 53.05 53.13 53.18 53.43 53.30 53.14 53.03 53.10 53.20 53.39 53.55
93.50 -9.84 -1129.15 16476.39 106.23 7.12 53.01 53.27 53.55 53.45 53.38 53.21 53.27 53.51 53.44 53.32 53.20 53.16 53.19 53.28 53.25 53.16 53.12 53.23 53.21 53.46 53.25 53.11 53.01 53.05 53.20 53.39 53.55
93.45 -9.84 -1129.15 16596.20 106.79 7.46 53.01 53.25 53.53 53.35 53.31 53.12 53.25 53.49 53.36 53.25 53.15 53.16 53.24 53.40 53.35 53.26 53.19 53.16 53.18 53.34 53.20 53.09 53.01 53.08 53.20 53.42 53.53
93.40 -9.84 -1133.64 16484.68 108.11 7.46 53.02 53.24 53.50 53.30 53.28 53.14 53.18 53.39 53.31 53.17 53.08 53.02 53.12 53.25 53.32 53.26 53.22 53.31 53.18 53.43 53.25 53.16 53.11 53.17 53.27 53.44 53.50
93.35 -9.75 -1133.64 16435.87 109.96 7.25 52.91 53.23 53.57 53.35 53.33 53.17 53.20 53.35 53.21 53.05 52.91 52.97 53.12 53.23 53.32 53.24 53.19 53.21 53.16 53.36 53.22 53.14 53.11 53.22 53.34 53.49 53.57
93.30 -9.75 -1133.64 16499.07 114.84 7.61 53.01 53.23 53.48 53.30 53.33 53.17 53.25 53.44 53.34 53.25 53.10 53.07 53.15 53.23 53.30 53.19 53.17 53.28 53.21 53.41 53.17 53.04 53.01 53.10 53.25 53.42 53.48
93.25 -9.75 -1133.64 16472.65 124.88 7.61 52.89 53.22 53.42 53.18 53.23 53.09 53.18 53.42 53.34 53.25 53.15 53.18 53.29 53.37 53.37 53.29 53.26 53.33 53.21 53.41 53.20 52.99 52.89 52.96 53.08 53.27 53.35
93.20 -9.87 -1133.64 16557.49 141.38 7.48 52.87 53.23 53.49 53.06 53.16 53.02 53.20 53.49 53.46 53.39 53.34 53.35 53.41 53.47 53.48 53.34 53.29 53.21 53.18 53.24 53.05 52.94 52.87 52.96 53.10 53.22 53.26
93.15 -9.87 -1133.64 16465.77 163.58 7.07 52.84 53.23 53.54 53.01 53.09 52.95 53.13 53.54 53.51 53.47 53.44 53.47 53.51 53.49 53.48 53.34 53.26 53.23 53.16 53.34 53.10 52.94 52.84 52.89 52.98 53.13 53.18
93.10 -9.87 -1129.15 16434.61 188.82 7.07 52.87 53.23 53.54 53.13 53.18 53.05 53.23 53.54 53.49 53.44 53.37 53.40 53.48 53.52 53.50 53.29 53.19 53.13 53.13 53.22 53.08 52.97 52.87 52.93 53.08 53.20 53.23
93.05 -9.83 -1133.64 16526.92 215.61 7.30 52.87 53.23 53.56 53.16 53.21 53.12 53.30 53.56 53.51 53.47 53.32 53.33 53.36 53.40 53.35 53.19 53.12 53.16 53.16 53.22 53.10 52.97 52.87 52.98 53.15 53.25 53.31
93.00 -9.83 -1133.64 16497.89 242.83 7.20 52.96 53.23 53.54 53.30 53.35 53.24 53.32 53.54 53.46 53.39 53.22 53.23 53.29 53.30 53.27 53.14 53.12 53.11 53.16 53.22 53.10 53.02 52.96 52.98 53.13 53.32 53.38
92.95 -9.83 -1129.15 16456.86 269.88 7.20 52.89 53.22 53.63 53.38 53.40 53.29 53.39 53.63 53.54 53.39 53.27 53.23 53.29 53.23 53.17 53.01 52.95 52.89 52.96 53.05 53.03 52.99 52.96 53.08 53.25 53.42 53.48
92.90 -9.83 -1133.64 16526.84 296.42 7.43 52.88 53.21 53.65 53.38 53.43 53.33 53.44 53.65 53.54 53.42 53.25 53.21 53.22 53.15 53.10 52.94 52.88 52.91 52.96 53.02 53.01 52.97 52.91 53.08 53.27 53.42 53.50
92.85 -9.74 -1129.15 16607.82 309.16 7.43 52.84 53.21 53.63 53.47 53.50 53.31 53.44 53.63 53.51 53.32 53.22 53.19 53.19 53.18 53.10 52.91 52.88 52.84 52.93 53.00 52.98 52.97 52.96 53.12 53.34 53.53 53.60
92.80 -9.74 -1133.64 16550.40 329.88 7.35 52.83 53.22 53.61 53.45 53.47 53.29 53.42 53.61 53.54 53.42 53.22 53.16 53.17 53.13 53.07 52.89 52.83 52.94 52.96 53.07 52.98 52.99 52.99 53.15 53.37 53.51 53.60
92.75 -9.74 -1133.64 16426.01 340.27 7.33 52.84 53.21 53.64 53.55 53.50 53.33 53.42 53.58 53.46 53.27 53.15 53.07 53.10 53.03 52.97 52.84 52.88 52.91 53.03 53.09 53.03 52.99 53.06 53.19 53.42 53.63 53.64
92.70 -9.87 -1129.15 16639.41 337.13 7.33 55.50 56.19 56.94 56.20 56.31 56.56 56.62 56.28 56.37 56.74 56.18 56.94 56.60 56.13 56.15 56.02 56.32 55.50 55.88 55.77 55.96 55.57 55.65 56.20 56.14 56.05 56.44
92.65 -9.87 -1129.15 17270.29 322.23 7.30 53.33 53.95 54.62 54.41 54.33 53.45 54.15 54.40 54.60 54.49 54.28 53.92 53.58 53.49 53.45 53.34 53.43 53.35 53.33 53.36 53.68 53.96 54.12 54.29 54.29 54.56 54.62
92.60 -9.87 -1133.64 15643.35 301.30 7.17 53.21 53.94 54.65 54.64 54.40 53.67 54.22 54.42 54.53 54.46 54.21 53.83 53.53 53.42 53.40 53.36 53.34 53.21 53.21 53.29 53.56 53.94 54.12 54.27 54.32 54.54 54.65
92.55 -9.81 -1129.15 16590.32 277.13 7.17 53.18 54.00 54.84 54.84 54.56 53.93 54.41 54.54 54.55 54.49 54.14 53.80 53.55 53.47 53.43 53.39 53.31 53.21 53.18 53.29 53.61 53.98 54.17 54.36 54.46 54.63 54.79
92.50 -9.81 -1129.15 16478.92 251.75 7.20 53.13 54.00 54.95 54.95 54.66 54.00 54.51 54.63 54.58 54.35 54.09 53.75 53.48 53.45 53.38 53.31 53.24 53.13 53.18 53.29 53.61 53.96 54.14 54.34 54.46 54.70 54.89
92.45 -9.81 -1133.64 16438.58 225.72 7.41 53.16 54.02 54.98 54.98 54.73 54.05 54.58 54.70 54.63 54.39 54.09 53.73 53.46 53.42 53.38 53.26 53.19 53.21 53.16 53.34 53.63 53.98 54.17 54.34 54.50 54.72 54.91
92.40 -9.77 -1133.64 16466.19 199.57 7.41 53.60 54.04 54.51 54.48 54.21 53.60 54.13 54.28 54.38 54.20 54.02 53.80 53.67 53.76 53.75 53.76 53.67 53.67 53.65 53.85 54.02 54.20 54.24 54.34 54.34 54.44 54.51
92.35 -9.77 -1138.13 16486.71 175.28 7.30 53.50 54.04 54.60 54.45 54.26 53.67 54.34 54.56 54.60 54.49 54.33 54.08 53.89 53.91 53.85 53.74 53.62 53.60 53.50 53.58 53.75 53.89 53.93 54.04 54.13 54.30 54.41
92.30 -9.77 -1129.15 16467.74 154.42 7.33 53.55 54.03 54.55 54.43 54.21 53.76 54.29 54.49 54.55 54.51 54.23 54.04 53.86 53.86 53.83 53.76 53.67 53.62 53.55 53.63 53.75 53.91 53.93 54.04 54.15 54.30 54.41
92.25 -9.77 -1129.15 16478.94 140.06 7.33 53.53 54.05 54.58 54.48 54.28 53.84 54.34 54.56 54.58 54.49 54.26 53.97 53.82 53.81 53.78 53.76 53.65 53.60 53.53 53.63 53.80 53.94 53.95 54.11 54.17 54.33 54.46
92.20 -9.88 -1129.15 16465.27 132.85 7.20 53.53 54.04 54.54 54.50 54.28 53.88 54.34 54.54 54.53 54.39 54.19 53.97 53.79 53.78 53.75 53.69 53.60 53.58 53.53 53.65 53.82 54.01 54.02 54.13 54.20 54.35 54.46
92.15 -9.88 -1133.64 16518.28 130.39 7.43 53.53 54.03 54.52 54.52 54.28 53.93 54.32 54.49 54.48 54.35 54.12 53.90 53.72 53.74 53.70 53.64 53.55 53.53 53.53 53.65 53.85 54.03 54.07 54.18 54.25 54.40 54.51
92.10 -9.88 -1129.15 16483.76 129.89 7.43 53.50 54.03 54.57 54.57 54.35 53.98 54.34 54.49 54.50 54.35 54.12 53.85 53.70 53.71 53.68 53.59 53.51 53.50 53.53 53.63 53.85 54.01 54.07 54.22 54.29 54.42 54.53
92.05 -9.79 -1133.64 16516.64 130.55 7.33 53.48 54.01 54.55 54.55 54.30 53.96 54.29 54.44 54.41 54.27 54.00 53.83 53.67 53.66 53.65 53.56 53.51 53.48 53.50 53.65 53.85 54.06 54.09 54.25 54.32 54.44 54.55
