~Version Information
VERS.                      2.0: CWLS Log ASCII Standard - VERSION 2.0
WRAP.                       NO: One line per depth step
#Non standard LAS - data should be wrapped
~Well Information Block
STRT.M                  140.00: START DEPTH
STOP.M                   80.00: STOP DEPTH
STEP.M                 -0.0500: STEP
NULL.                -999.2500: NULL VALUE
COMP.                         : COMPANY
WELL.                         : WELL
FLD.                          : FIELD
LOC.                          : LOCATION
DATE.         26 05-38-47 2014: LOG DATE
~Curve Information Block
DEPT.M             0 000 00 00: Depth
LSPD.M/MIN                   0: Line Speed
LTEN.KG                      0: Surface Line Tension
CCL.                        0: Casing Collar Locator
GR.GAPI                     0: Gamma Ray
WTEMP.DEGC                  0: GTC Well Temperature
MNRD.MM                      0: Min Radius
AVRD.MM                      0: Avg Radius
MXRD.MM                      0: Max Radius
R01.MM                       0: Radius 01
R02.MM                       0: Radius 02
R03.MM                       0: Radius 03
R04.MM                       0: Radius 04
R05.MM                       0: Radius 05
R06.MM                       0: Radius 06
R07.MM                       0: Radius 07
R08.MM                       0: Radius 08
R09.MM                       0: Radius 09
R10.MM                       0: Radius 10
R11.MM                       0: Radius 11
R12.MM                       0: Radius 12
R13.MM                       0: Radius 13
R14.MM                       0: Radius 14
R15.MM                       0: Radius 15
R16.MM                       0: Radius 16
R17.MM                       0: Radius 17
R18.MM                       0: Radius 18
R19.MM                       0: Radius 19
R20.MM                       0: Radius 20
R21.MM                       0: Radius 21
R22.MM                       0: Radius 22
R23.MM                       0: Radius 23
R24.MM                       0: Radius 24
~A  Depth   LSPD LTEN     CCL       GR    WTemp MNRD   AVRD   MXRD    R01    R02    R03    R04    R05    R06    R07    R08    R09    R10    R11    R12    R13    R14    R15    R16    R17    R18    R19    R20    R21    R22    R23    R24
# ...
116.00 -9.75 -1133.64 16500.83 120.43 8.02 53.57 54.11 54.56 54.55 54.56 54.38 54.53 54.56 54.43 54.25 54.07 53.92 53.74 53.66 53.57 53.58 53.58 53.67 53.75 53.94 54.09 54.13 54.24 54.36 54.43 54.51 54.15
115.95 -9.75 -1129.15 16482.54 120.31 8.02 53.60 54.12 54.58 54.52 54.54 54.36 54.48 54.58 54.45 54.22 54.12 53.94 53.74 53.71 53.60 53.61 53.65 53.70 53.75 53.94 54.09 54.15 54.24 54.36 54.41 54.51 54.10
115.90 -9.79 -1129.15 16458.53 119.98 8.00 53.63 54.12 54.59 54.52 54.59 54.38 54.53 54.58 54.48 54.25 54.12 53.99 53.79 53.76 53.63 53.63 53.67 53.72 53.75 53.97 54.11 54.13 54.21 54.34 54.41 54.47 53.95
115.85 -9.79 -1133.64 16488.15 119.70 8.02 53.60 54.12 54.57 54.57 54.56 54.43 54.55 54.56 54.45 54.27 54.07 53.94 53.77 53.73 53.60 53.61 53.67 53.67 53.75 53.94 54.09 54.13 54.21 54.36 54.43 54.49 53.93
115.80 -9.79 -1133.64 16543.47 119.79 8.02 53.56 54.11 54.59 54.57 54.59 54.48 54.55 54.56 54.45 54.25 54.05 53.89 53.70 53.69 53.57 53.56 53.62 53.65 53.72 53.94 54.09 54.15 54.26 54.39 54.48 54.51 53.98
115.75 -9.86 -1129.15 16470.03 120.47 8.00 53.55 54.11 54.63 54.60 54.63 54.43 54.55 54.56 54.43 54.22 54.02 53.89 53.72 53.66 53.55 53.56 53.62 53.62 53.75 53.92 54.09 54.20 54.31 54.41 54.48 54.54 53.93
115.70 -9.86 -1133.64 16481.74 120.84 8.05 53.50 54.10 54.64 54.64 54.61 54.45 54.55 54.54 54.41 54.18 54.00 53.85 53.67 53.64 53.50 53.51 53.55 53.57 53.72 53.94 54.11 54.20 54.31 54.41 54.50 54.61 54.05
115.65 -9.86 -1133.64 16544.20 122.27 8.05 53.46 54.10 54.64 54.64 54.61 54.41 54.50 54.54 54.41 54.13 54.00 53.82 53.62 53.59 53.47 53.46 53.53 53.55 53.70 53.92 54.11 54.22 54.36 54.48 54.57 54.63 54.15
115.60 -9.75 -1133.64 16461.79 123.86 8.20 53.42 54.11 54.69 54.69 54.66 54.48 54.55 54.56 54.43 54.13 54.00 53.75 53.62 53.54 53.42 53.43 53.50 53.55 53.72 53.92 54.11 54.22 54.36 54.48 54.57 54.68 54.24
115.55 -9.75 -1129.15 16439.11 124.78 7.94 53.38 54.11 54.71 54.71 54.68 54.48 54.55 54.58 54.43 54.15 53.98 53.75 53.58 53.52 53.40 53.38 53.46 53.55 53.72 53.92 54.11 54.25 54.36 54.50 54.60 54.68 54.36
115.50 -9.75 -1133.64 16458.99 125.64 7.94 53.37 54.11 54.69 54.69 54.63 54.48 54.53 54.51 54.41 54.15 53.91 53.75 53.55 53.52 53.37 53.38 53.46 53.57 53.72 53.90 54.11 54.22 54.36 54.52 54.60 54.68 54.50
115.45 -9.81 -1133.64 16523.54 127.94 8.07 53.37 54.09 54.70 54.64 54.59 54.38 54.48 54.49 54.38 54.11 53.91 53.75 53.55 53.52 53.37 53.38 53.46 53.55 53.70 53.94 54.11 54.25 54.36 54.50 54.57 54.70 54.55
115.40 -9.81 -1129.15 16509.59 130.70 8.12 53.40 54.11 54.69 54.67 54.63 54.38 54.50 54.54 54.41 54.08 53.95 53.78 53.58 53.52 53.40 53.41 53.48 53.55 53.72 53.94 54.13 54.20 54.33 54.48 54.57 54.63 54.69
115.35 -9.81 -1133.64 16510.10 133.97 8.12 53.41 54.11 54.65 54.62 54.59 54.36 54.48 54.54 54.41 54.13 54.00 53.85 53.65 53.54 53.42 53.41 53.46 53.55 53.70 53.92 54.11 54.25 54.33 54.48 54.53 54.65 54.65
115.30 -9.81 -1129.15 16537.93 136.83 8.02 53.43 54.11 54.65 54.60 54.56 54.36 54.48 54.54 54.41 54.20 54.02 53.89 53.67 53.61 53.47 53.43 53.46 53.55 53.70 53.92 54.09 54.18 54.31 54.45 54.50 54.58 54.65
115.25 -9.86 -1133.64 16524.16 139.65 7.97 53.46 54.09 54.65 54.50 54.44 54.29 54.43 54.49 54.38 54.20 54.05 53.92 53.72 53.64 53.50 53.46 53.46 53.53 53.70 53.85 54.06 54.18 54.28 54.45 54.50 54.56 54.65
115.20 -9.86 -1133.64 16511.15 142.15 7.97 53.48 54.08 54.55 54.43 54.47 54.26 54.43 54.54 54.41 54.20 54.09 53.94 53.74 53.66 53.50 53.48 53.48 53.55 53.68 53.85 54.04 54.13 54.24 54.39 54.43 54.54 54.55
115.15 -9.86 -1133.64 16506.97 144.44 7.87 53.46 54.09 54.58 54.45 54.49 54.29 54.46 54.58 54.48 54.27 54.14 53.96 53.77 53.66 53.52 53.46 53.48 53.53 53.65 53.87 54.04 54.13 54.24 54.36 54.41 54.51 54.43
115.10 -9.77 -1129.15 16563.82 146.62 7.92 53.46 54.07 54.58 54.40 54.44 54.31 54.48 54.58 54.43 54.25 54.14 53.96 53.77 53.64 53.50 53.46 53.48 53.53 53.65 53.85 53.99 54.08 54.19 54.34 54.39 54.47 54.34
115.05 -9.77 -1133.64 16505.50 148.15 7.92 53.43 54.07 54.58 54.40 54.47 54.33 54.53 54.58 54.45 54.30 54.12 54.01 53.77 53.66 53.52 53.43 53.48 53.60 53.65 53.87 54.01 54.08 54.16 54.32 54.36 54.40 54.19
115.00 -9.77 -1133.64 16493.54 151.37 8.02 53.46 54.07 54.61 54.43 54.49 54.33 54.50 54.61 54.48 54.27 54.14 53.96 53.77 53.66 53.52 53.46 53.48 53.57 53.65 53.87 54.01 54.08 54.19 54.32 54.36 54.42 54.12
114.95 -9.84 -1133.64 16491.70 153.15 8.02 53.46 54.06 54.61 54.40 54.49 54.38 54.55 54.61 54.45 54.30 54.09 53.94 53.74 53.64 53.50 53.46 53.48 53.55 53.68 53.85 54.01 54.03 54.12 54.32 54.34 54.40 54.03
114.90 -9.84 -1133.64 16506.40 154.95 7.94 53.46 54.03 54.58 54.40 54.47 54.36 54.50 54.58 54.43 54.22 54.07 53.92 53.72 53.64 53.50 53.46 53.50 53.55 53.65 53.82 53.97 54.03 54.14 54.29 54.32 54.40 53.88
114.85 -9.84 -1129.15 16505.79 156.17 7.97 53.41 54.04 54.61 54.50 54.54 54.45 54.60 54.61 54.48 54.27 54.07 53.89 53.70 53.59 53.45 53.41 53.48 53.50 53.65 53.82 53.97 54.03 54.14 54.29 54.34 54.42 53.83
114.80 -9.84 -1133.64 16504.06 156.54 7.97 53.36 54.03 54.63 54.52 54.61 54.45 54.57 54.63 54.48 54.22 54.07 53.87 53.62 53.54 53.40 53.36 53.41 53.50 53.63 53.80 53.97 54.03 54.16 54.32 54.39 54.44 53.83
114.75 -9.84 -1133.64 16492.03 157.21 8.02 53.36 54.02 54.65 54.50 54.61 54.43 54.57 54.65 54.45 54.20 54.05 53.85 53.62 53.52 53.40 53.36 53.41 53.48 53.63 53.80 53.94 54.03 54.14 54.32 54.39 54.47 53.76
114.70 -9.84 -1133.64 16471.99 157.19 7.97 53.33 54.03 54.68 54.57 54.66 54.50 54.62 54.68 54.48 54.22 54.07 53.82 53.60 53.49 53.35 53.33 53.38 53.43 53.63 53.77 53.92 54.03 54.16 54.32 54.39 54.49 53.86
114.65 -9.84 -1133.64 16520.51 156.63 7.97 53.33 54.03 54.68 54.62 54.68 54.53 54.64 54.65 54.48 54.25 54.00 53.80 53.58 53.47 53.35 53.33 53.38 53.43 53.58 53.77 53.92 54.01 54.14 54.34 54.41 54.47 53.93
114.60 -9.75 -1133.64 16565.06 155.99 7.89 53.31 54.04 54.66 54.62 54.66 54.53 54.64 54.63 54.48 54.25 54.02 53.82 53.60 53.49 53.35 53.31 53.38 53.40 53.55 53.75 53.92 54.03 54.16 54.34 54.41 54.51 54.00
114.55 -9.75 -1129.15 16484.18 154.36 8.28 53.24 54.03 54.66 54.62 54.66 54.50 54.62 54.63 54.43 54.20 53.98 53.78 53.53 53.42 53.30 53.24 53.31 53.40 53.55 53.77 53.94 54.06 54.19 54.34 54.46 54.54 54.17
114.50 -9.75 -1133.64 16498.14 152.75 8.28 53.26 54.03 54.65 54.62 54.63 54.45 54.57 54.65 54.45 54.18 54.02 53.80 53.55 53.42 53.27 53.26 53.31 53.43 53.58 53.75 53.94 54.08 54.21 54.39 54.46 54.56 54.24
114.45 -9.84 -1133.64 16504.53 151.20 7.76 53.29 54.05 54.63 54.60 54.63 54.45 54.57 54.63 54.50 54.22 54.05 53.82 53.58 53.44 53.30 53.29 53.36 53.45 53.58 53.82 53.99 54.10 54.21 54.36 54.41 54.51 54.29
114.40 -9.84 -1133.64 16490.52 149.12 7.97 53.29 54.06 54.63 54.57 54.61 54.38 54.55 54.63 54.48 54.22 54.07 53.87 53.58 53.44 53.30 53.29 53.34 53.45 53.58 53.82 53.99 54.15 54.26 54.36 54.43 54.56 54.53
114.35 -9.84 -1133.64 16487.63 147.27 7.97 53.33 54.07 54.58 54.55 54.56 54.31 54.50 54.58 54.48 54.20 54.07 53.87 53.62 53.47 53.35 53.33 53.41 53.50 53.60 53.87 54.04 54.15 54.26 54.39 54.43 54.54 54.58
114.30 -9.82 -1129.15 16480.67 144.51 7.94 53.33 54.08 54.60 54.55 54.56 54.33 54.50 54.58 54.50 54.25 54.07 53.87 53.62 53.52 53.35 53.33 53.38 53.48 53.60 53.90 54.09 54.20 54.31 54.39 54.43 54.54 54.60
114.25 -9.82 -1133.64 16520.92 141.57 7.84 53.36 54.08 54.67 54.52 54.51 54.33 54.48 54.54 54.45 54.22 54.02 53.87 53.62 53.52 53.37 53.36 53.41 53.53 53.63 53.92 54.09 54.18 54.26 54.41 54.43 54.54 54.67
114.20 -9.82 -1133.64 16465.50 138.77 7.84 53.40 54.08 54.62 54.45 54.44 54.26 54.41 54.49 54.43 54.20 54.05 53.87 53.65 53.54 53.40 53.43 53.46 53.60 53.65 53.92 54.11 54.20 54.28 54.41 54.43 54.51 54.62
114.15 -9.82 -1133.64 16478.74 135.87 7.82 53.50 54.09 54.58 54.45 54.47 54.26 54.41 54.54 54.45 54.20 54.07 53.89 53.70 53.61 53.50 53.51 53.55 53.67 53.68 53.94 54.11 54.18 54.26 54.36 54.39 54.49 54.58
114.10 -9.77 -1129.15 16521.14 132.95 8.12 53.51 54.10 54.58 54.48 54.49 54.31 54.48 54.58 54.48 54.25 54.12 53.96 53.77 53.69 53.52 53.51 53.55 53.62 53.70 53.90 54.06 54.13 54.21 54.36 54.39 54.47 54.46
114.05 -9.77 -1133.64 16528.33 129.97 8.12 53.51 54.11 54.63 54.50 54.51 54.33 54.53 54.63 54.48 54.27 54.14 53.96 53.77 53.71 53.55 53.51 53.58 53.65 53.70 53.90 54.06 54.13 54.19 54.32 54.36 54.47 54.34
