~Version Information
VERS.                      2.0: CWLS Log ASCII Standard - VERSION 2.0
WRAP.                       NO: One line per depth step
#Non standard LAS - data should be wrapped
~Well Information Block
STRT.M                  140.00: START DEPTH
STOP.M                   80.00: STOP DEPTH
STEP.M                 -0.0500: STEP
NULL.                -999.2500: NULL VALUE
COMP.                         : COMPANY
WELL.                         : WELL
FLD.                          : FIELD
LOC.                          : LOCATION
DATE.         26 05-38-47 2014: LOG DATE
~Curve Information Block
DEPT.M             0 000 00 00: Depth
LSPD.M/MIN                   0: Line Speed
LTEN.KG                      0: Surface Line Tension
CCL.                        0: Casing Collar Locator
GR.GAPI                     0: Gamma Ray
WTEMP.DEGC                  0: GTC Well Temperature
MNRD.MM                      0: Min Radius
AVRD.MM                      0: Avg Radius
MXRD.MM                      0: Max Radius
R01.MM                       0: Radius 01
R02.MM                       0: Radius 02
R03.MM                       0: Radius 03
R04.MM                       0: Radius 04
R05.MM                       0: Radius 05
R06.MM                       0: Radius 06
R07.MM                       0: Radius 07
R08.MM                       0: Radius 08
R09.MM                       0: Radius 09
R10.MM                       0: Radius 10
R11.MM                       0: Radius 11
R12.MM                       0: Radius 12
R13.MM                       0: Radius 13
R14.MM                       0: Radius 14
R15.MM                       0: Radius 15
R16.MM                       0: Radius 16
R17.MM                       0: Radius 17
R18.MM                       0: Radius 18
R19.MM                       0: Radius 19
R20.MM                       0: Radius 20
R21.MM                       0: Radius 21
R22.MM                       0: Radius 22
R23.MM                       0: Radius 23
R24.MM                       0: Radius 24
~A  Depth   LSPD LTEN     CCL       GR    WTemp MNRD   AVRD   MXRD    R01    R02    R03    R04    R05    R06    R07    R08    R09    R10    R11    R12    R13    R14    R15    R16    R17    R18    R19    R20    R21    R22    R23    R24
# ...
120.00 -9.83 -1133.64 16494.68 81.93 7.94 51.57 52.30 52.98 52.83 52.95 52.72 52.94 52.98 52.59 52.49 52.34 52.57 52.08 51.92 51.80 51.62 51.57 51.67 51.74 51.98 51.94 52.01 52.12 52.42 52.50 52.68 52.80
119.95 -9.83 -1129.15 16617.37 80.62 8.15 51.55 52.27 52.96 52.83 52.95 52.67 52.89 52.96 52.62 52.49 52.39 52.14 52.03 51.84 51.70 51.57 51.55 51.65 51.71 52.01 51.96 51.98 52.14 52.42 52.50 52.65 52.80
119.90 -9.83 -1133.64 16408.29 78.86 8.15 51.52 52.27 53.00 52.81 52.93 52.67 52.89 53.00 52.62 52.49 52.36 52.19 52.03 51.84 51.72 51.57 51.52 51.62 51.71 51.98 51.94 52.01 52.12 52.40 52.50 52.68 52.80
119.85 -9.74 -1133.64 15588.32 78.15 8.15 51.33 52.13 52.88 52.68 52.80 52.55 52.79 52.88 52.56 52.49 52.29 52.07 51.88 51.69 51.57 51.36 51.33 51.37 51.48 51.78 51.79 51.84 51.99 52.33 52.40 52.53 52.65
119.80 -9.74 -1133.64 18541.20 76.87 8.00 52.48 53.58 54.63 54.00 54.45 53.73 53.96 54.58 54.42 53.53 54.14 53.78 53.38 52.87 52.87 53.26 53.00 52.48 53.31 52.93 53.18 52.85 53.01 53.84 54.08 53.71 54.63
119.75 -9.74 -1129.15 14612.05 75.83 8.00 50.59 51.26 52.04 51.73 51.95 51.63 51.84 51.99 52.04 51.80 51.57 51.29 51.08 50.86 50.78 50.59 50.61 50.61 50.69 50.63 50.76 50.90 51.01 51.29 51.29 51.50 51.70
119.70 -9.82 -1133.64 10699.87 74.73 8.17 50.71 51.36 52.03 51.83 52.03 51.68 51.94 51.99 52.02 51.90 51.69 51.54 51.36 50.96 50.89 50.75 50.71 50.71 50.71 50.76 50.86 51.05 51.14 51.36 51.37 51.60 51.70
119.65 -9.82 -1133.64 23794.75 74.24 8.05 53.30 53.96 54.77 54.40 54.51 54.36 54.60 54.77 54.67 54.44 54.14 53.99 53.62 53.44 53.37 53.43 53.34 53.30 53.38 53.77 53.89 53.77 53.90 53.92 53.96 53.98 54.10
119.60 -9.82 -1133.64 16315.20 73.61 8.05 53.11 53.97 54.82 54.52 54.63 54.45 54.64 54.82 54.70 54.49 54.21 54.06 53.62 53.42 53.30 53.26 53.21 53.11 53.25 53.65 53.78 53.77 53.90 53.99 54.08 54.14 54.26
119.55 -9.82 -1133.64 15915.54 73.11 7.94 53.23 53.96 54.58 54.38 54.47 54.24 54.41 54.58 54.50 54.27 54.07 53.89 53.51 53.32 53.25 53.26 53.26 53.23 53.43 53.85 54.01 54.06 54.16 54.22 54.20 54.19 54.19
119.50 -9.83 -1133.64 16888.00 73.03 8.10 55.42 56.33 57.39 56.69 56.83 56.25 56.22 56.68 56.53 56.15 56.43 55.82 55.65 55.50 55.44 55.42 55.49 56.28 55.73 57.17 56.53 56.44 56.60 57.03 57.17 56.49 57.39
119.45 -9.83 -1133.64 16692.32 72.72 8.10 53.37 54.14 54.90 54.45 54.54 54.19 54.06 53.98 54.24 53.85 53.72 53.56 53.46 53.40 53.37 53.46 53.72 53.87 54.07 54.31 54.56 54.73 54.86 54.90 54.81 54.86 54.50
119.40 -9.83 -1133.64 15992.98 72.85 8.00 53.41 54.16 54.97 54.50 54.35 54.05 54.06 54.09 53.99 53.68 53.53 53.47 53.41 53.44 53.47 53.56 53.79 53.94 54.19 54.50 54.78 54.87 54.93 54.97 54.91 54.82 54.50
119.35 -9.77 -1129.15 16574.91 73.24 7.92 53.41 54.17 54.94 54.52 54.40 54.03 54.01 54.05 54.02 53.68 53.58 53.47 53.41 53.47 53.50 53.58 53.79 53.99 54.19 54.53 54.76 54.87 54.91 54.94 54.88 54.84 54.58
119.30 -9.77 -1133.64 16525.71 73.30 7.92 53.60 54.18 54.80 54.50 54.37 54.07 54.10 54.09 54.02 53.82 53.70 53.64 53.60 53.64 53.63 53.74 53.89 54.01 54.19 54.46 54.64 54.68 54.74 54.80 54.79 54.72 54.46
119.25 -9.77 -1138.13 16542.89 73.98 8.15 53.53 54.20 54.79 54.71 54.63 54.38 54.43 54.44 54.31 54.08 53.91 53.78 53.62 53.59 53.55 53.53 53.67 53.75 53.95 54.11 54.32 54.44 54.57 54.76 54.79 54.79 54.60
119.20 -9.84 -1129.15 16498.74 74.75 8.07 53.56 54.19 54.77 54.64 54.59 54.41 54.48 54.51 54.36 54.18 54.00 53.89 53.74 53.66 53.57 53.56 53.67 53.72 53.87 54.04 54.21 54.34 54.45 54.64 54.72 54.77 54.53
119.15 -9.84 -1133.64 16529.91 75.31 8.07 53.66 54.21 54.70 54.62 54.63 54.38 54.50 54.56 54.38 54.15 54.02 53.92 53.74 53.71 53.68 53.66 53.70 53.77 53.87 54.09 54.25 54.37 54.48 54.64 54.69 54.70 54.41
119.10 -9.84 -1133.64 16492.19 75.83 8.02 53.63 54.20 54.70 54.64 54.61 54.43 54.50 54.51 54.36 54.18 54.00 53.94 53.77 53.73 53.65 53.63 53.70 53.72 53.87 54.09 54.25 54.34 54.45 54.59 54.65 54.70 54.36
119.05 -9.84 -1129.15 16435.90 76.10 7.97 53.63 54.18 54.68 54.62 54.59 54.38 54.46 54.49 54.33 54.15 54.00 53.89 53.79 53.71 53.65 53.63 53.70 53.75 53.87 54.04 54.25 54.32 54.43 54.62 54.65 54.68 54.38
119.00 -9.82 -1133.64 16463.25 76.22 7.97 53.61 54.17 54.68 54.60 54.61 54.31 54.43 54.47 54.33 54.11 54.00 53.89 53.74 53.71 53.63 53.61 53.70 53.75 53.90 54.07 54.25 54.34 54.45 54.59 54.65 54.68 54.26
118.95 -9.82 -1133.64 16558.31 76.66 8.02 53.61 54.15 54.68 54.55 54.56 54.31 54.39 54.44 54.28 54.06 53.98 53.82 53.72 53.69 53.63 53.61 53.70 53.75 53.87 54.09 54.25 54.34 54.45 54.62 54.67 54.68 54.19
118.90 -9.82 -1129.15 16629.45 76.99 7.92 53.60 54.14 54.65 54.57 54.54 54.31 54.39 54.40 54.24 54.06 53.93 53.85 53.70 53.64 53.60 53.61 53.67 53.75 53.87 54.07 54.25 54.34 54.48 54.62 54.65 54.65 54.19
118.85 -9.74 -1129.15 16583.22 77.39 7.92 53.57 54.13 54.65 54.57 54.56 54.29 54.36 54.40 54.26 54.01 53.93 53.80 53.65 53.66 53.57 53.58 53.70 53.75 53.87 54.04 54.25 54.32 54.45 54.59 54.62 54.65 54.15
118.80 -9.74 -1133.64 16521.35 78.40 8.02 53.55 54.12 54.65 54.57 54.56 54.31 54.36 54.40 54.26 54.04 53.93 53.75 53.65 53.61 53.55 53.58 53.67 53.72 53.87 54.07 54.23 54.32 54.45 54.59 54.62 54.65 54.19
118.75 -9.74 -1133.64 16545.16 78.41 8.17 53.55 54.12 54.65 54.57 54.56 54.29 54.36 54.37 54.24 53.99 53.91 53.75 53.62 53.61 53.55 53.58 53.67 53.72 53.87 54.07 54.23 54.32 54.45 54.62 54.65 54.65 54.19
118.70 -9.83 -1129.15 16499.16 78.29 8.17 53.52 54.11 54.65 54.52 54.54 54.24 54.29 54.37 54.24 53.96 53.88 53.75 53.60 53.59 53.52 53.53 53.65 53.72 53.87 54.07 54.25 54.34 54.48 54.62 54.65 54.65 54.19
118.65 -9.83 -1129.15 16466.60 78.14 7.97 53.51 54.10 54.65 54.52 54.51 54.29 54.36 54.35 54.19 53.99 53.86 53.75 53.60 53.56 53.52 53.51 53.62 53.65 53.87 54.04 54.23 54.32 54.45 54.62 54.62 54.65 54.38
118.60 -9.83 -1133.64 16465.28 78.58 7.97 53.47 54.10 54.63 54.55 54.54 54.33 54.39 54.37 54.21 54.01 53.86 53.75 53.60 53.56 53.47 53.48 53.58 53.67 53.85 54.04 54.18 54.30 54.43 54.57 54.60 54.63 54.36
118.55 -9.79 -1129.15 16503.44 79.65 7.97 53.47 54.10 54.61 54.57 54.56 54.31 54.39 54.44 54.26 54.01 53.91 53.75 53.62 53.54 53.47 53.48 53.60 53.67 53.85 54.02 54.18 54.25 54.38 54.52 54.55 54.61 54.43
118.50 -9.79 -1133.64 16506.15 80.80 8.12 53.45 54.09 54.63 54.57 54.54 54.31 54.39 54.44 54.26 54.01 53.91 53.75 53.58 53.49 53.45 53.46 53.55 53.65 53.82 54.02 54.18 54.27 54.38 54.52 54.57 54.63 54.50
118.45 -9.79 -1133.64 16516.47 81.41 8.20 53.45 54.08 54.58 54.55 54.51 54.31 54.41 54.40 54.21 54.04 53.88 53.75 53.60 53.54 53.45 53.46 53.58 53.65 53.80 53.99 54.13 54.22 54.33 54.50 54.53 54.58 54.50
118.40 -9.79 -1133.64 16537.89 82.32 8.20 53.43 54.07 54.61 54.57 54.54 54.31 54.41 54.47 54.28 54.06 53.93 53.78 53.60 53.52 53.45 53.43 53.55 53.60 53.75 53.92 54.09 54.15 54.28 54.45 54.50 54.61 54.50
118.35 -9.78 -1133.64 16502.32 83.14 8.10 53.42 54.06 54.60 54.55 54.51 54.33 54.41 54.42 54.26 54.08 53.91 53.80 53.60 53.52 53.42 53.43 53.53 53.57 53.70 53.90 54.04 54.13 54.26 54.45 54.53 54.56 54.60
118.30 -9.78 -1133.64 16539.44 84.30 8.20 53.41 54.05 54.58 54.52 54.49 54.29 54.41 54.42 54.26 54.06 53.88 53.78 53.60 53.52 53.42 53.41 53.53 53.57 53.70 53.87 54.01 54.10 54.24 54.41 54.48 54.58 54.58
118.25 -9.78 -1129.15 16508.26 85.18 8.20 53.38 54.05 54.60 54.57 54.54 54.38 54.43 54.44 54.28 54.08 53.91 53.75 53.58 53.49 53.42 53.38 53.50 53.53 53.65 53.82 53.99 54.06 54.21 54.41 54.50 54.58 54.60
118.20 -9.88 -1133.64 16482.02 87.20 8.07 53.38 54.03 54.58 54.57 54.56 54.36 54.43 54.49 54.28 54.06 53.93 53.75 53.58 53.47 53.40 53.38 53.48 53.53 53.65 53.77 53.97 54.03 54.16 54.39 54.46 54.56 54.58
118.15 -9.88 -1133.64 16481.76 89.92 8.07 53.38 54.04 54.60 54.60 54.59 54.38 54.46 54.49 54.33 54.08 53.95 53.80 53.60 53.47 53.40 53.38 53.48 53.50 53.63 53.77 53.94 54.03 54.14 54.39 54.43 54.56 54.48
118.10 -9.88 -1133.64 16488.33 92.53 8.00 53.38 54.02 54.59 54.57 54.59 54.36 54.43 54.49 54.31 54.04 53.93 53.78 53.58 53.49 53.40 53.38 53.48 53.50 53.65 53.77 53.97 54.01 54.14 54.36 54.43 54.54 54.38
118.05 -9.83 -1133.64 16510.03 95.07 8.05 53.41 54.02 54.54 54.52 54.54 54.33 54.43 54.44 54.28 54.08 53.91 53.78 53.60 53.49 53.42 53.41 53.48 53.53 53.65 53.80 53.97 54.03 54.16 54.36 54.43 54.51 54.34
