~Version Information
VERS.                      2.0: CWLS Log ASCII Standard - VERSION 2.0
WRAP.                       NO: One line per depth step
#Non standard LAS - data should be wrapped
~Well Information Block
STRT.M                  140.00: START DEPTH
STOP.M                   80.00: STOP DEPTH
STEP.M                 -0.0500: STEP
NULL.                -999.2500: NULL VALUE
COMP.                         : COMPANY
WELL.                         : WELL
FLD.                          : FIELD
LOC.                          : LOCATION
DATE.         26 05-38-47 2014: LOG DATE
~Curve Information Block
DEPT.M             0 000 00 00: Depth
LSPD.M/MIN                   0: Line Speed
LTEN.KG                      0: Surface Line Tension
CCL.                        0: Casing Collar Locator
GR.GAPI                     0: Gamma Ray
WTEMP.DEGC                  0: GTC Well Temperature
MNRD.MM                      0: Min Radius
AVRD.MM                      0: Avg Radius
MXRD.MM                      0: Max Radius
R01.MM                       0: Radius 01
R02.MM                       0: Radius 02
R03.MM                       0: Radius 03
R04.MM                       0: Radius 04
R05.MM                       0: Radius 05
R06.MM                       0: Radius 06
R07.MM                       0: Radius 07
R08.MM                       0: Radius 08
R09.MM                       0: Radius 09
R10.MM                       0: Radius 10
R11.MM                       0: Radius 11
R12.MM                       0: Radius 12
R13.MM                       0: Radius 13
R14.MM                       0: Radius 14
R15.MM                       0: Radius 15
R16.MM                       0: Radius 16
R17.MM                       0: Radius 17
R18.MM                       0: Radius 18
R19.MM                       0: Radius 19
R20.MM                       0: Radius 20
R21.MM                       0: Radius 21
R22.MM                       0: Radius 22
R23.MM                       0: Radius 23
R24.MM                       0: Radius 24
~A  Depth   LSPD LTEN     CCL       GR    WTemp MNRD   AVRD   MXRD    R01    R02    R03    R04    R05    R06    R07    R08    R09    R10    R11    R12    R13    R14    R15    R16    R17    R18    R19    R20    R21    R22    R23    R24
# ...
136.00 -9.28 -1129.15 16562.39 94.46 8.25 51.90 52.40 52.95 52.76 52.95 52.77 52.79 52.66 52.54 52.39 52.34 52.27 52.16 52.04 51.96 51.90 51.92 52.03 52.27 52.11 52.21 52.30 52.39 52.67 52.73 52.73 52.75
135.95 -9.28 -1133.64 16453.18 95.40 8.33 51.94 52.41 52.95 52.78 52.95 52.75 52.79 52.66 52.54 52.39 52.34 52.27 52.16 52.04 51.98 51.96 51.94 52.08 52.27 52.11 52.21 52.30 52.42 52.67 52.73 52.73 52.75
135.90 -9.16 -1129.15 16528.27 96.86 8.43 51.92 52.39 52.90 52.71 52.90 52.72 52.76 52.63 52.46 52.35 52.31 52.27 52.16 52.07 51.98 51.93 51.92 52.10 52.25 52.13 52.24 52.30 52.42 52.67 52.70 52.70 52.73
135.85 -9.16 -1133.64 16517.84 98.11 8.43 51.94 52.40 52.90 52.71 52.90 52.70 52.74 52.58 52.46 52.35 52.31 52.27 52.18 52.09 52.01 51.98 51.94 52.08 52.25 52.11 52.24 52.33 52.44 52.67 52.73 52.73 52.75
135.80 -9.16 -1129.15 16512.16 98.97 8.30 51.94 52.40 52.90 52.73 52.90 52.75 52.79 52.61 52.49 52.35 52.29 52.27 52.18 52.09 52.01 51.96 51.94 52.03 52.25 52.13 52.24 52.33 52.44 52.67 52.70 52.73 52.75
135.75 -9.16 -1133.64 16460.39 99.54 8.48 51.96 52.40 52.90 52.73 52.90 52.72 52.76 52.61 52.46 52.35 52.29 52.27 52.18 52.07 52.04 51.96 51.97 52.05 52.25 52.13 52.24 52.30 52.44 52.67 52.70 52.73 52.75
135.70 -9.24 -1133.64 16495.43 99.77 8.48 51.94 52.40 52.90 52.73 52.90 52.75 52.79 52.61 52.49 52.35 52.29 52.27 52.16 52.07 52.01 51.96 51.94 52.05 52.25 52.11 52.24 52.33 52.44 52.67 52.73 52.75 52.75
135.65 -9.24 -1129.15 16564.46 100.14 8.46 51.94 52.41 52.95 52.78 52.95 52.75 52.76 52.63 52.51 52.37 52.36 52.27 52.18 52.07 52.01 51.96 51.94 52.05 52.25 52.11 52.21 52.35 52.47 52.67 52.73 52.75 52.78
135.60 -9.24 -1133.64 16540.99 101.06 8.46 51.94 52.41 52.93 52.76 52.93 52.77 52.79 52.63 52.49 52.39 52.31 52.27 52.18 52.07 52.01 51.96 51.94 52.05 52.27 52.11 52.24 52.33 52.44 52.69 52.73 52.73 52.78
135.55 -9.19 -1129.15 16436.33 101.73 8.33 51.94 52.40 52.93 52.78 52.93 52.70 52.74 52.63 52.49 52.32 52.36 52.27 52.21 52.07 51.98 51.98 51.94 52.05 52.25 52.11 52.24 52.28 52.42 52.69 52.73 52.70 52.78
135.50 -9.19 -1133.64 16486.04 101.56 8.28 51.96 52.40 52.93 52.71 52.93 52.72 52.74 52.63 52.49 52.32 52.34 52.29 52.21 52.07 51.98 51.96 51.97 52.05 52.25 52.08 52.21 52.30 52.42 52.69 52.70 52.73 52.78
135.45 -9.19 -1133.64 16280.17 100.86 8.28 51.94 52.40 52.93 52.73 52.93 52.70 52.74 52.61 52.49 52.32 52.31 52.27 52.18 52.09 52.01 51.96 51.94 52.05 52.25 52.13 52.24 52.33 52.44 52.67 52.70 52.75 52.78
135.40 -9.16 -1133.64 16469.99 99.67 8.56 51.94 52.41 52.95 52.78 52.95 52.75 52.76 52.63 52.54 52.37 52.31 52.27 52.18 52.07 52.01 51.96 51.94 52.05 52.25 52.11 52.21 52.30 52.42 52.69 52.70 52.75 52.75
135.35 -9.16 -1129.15 16522.66 98.58 8.41 51.94 52.39 52.90 52.76 52.90 52.72 52.74 52.58 52.46 52.32 52.27 52.24 52.18 52.07 52.01 51.96 51.94 52.00 52.25 52.08 52.21 52.28 52.42 52.69 52.73 52.75 52.78
135.30 -9.16 -1129.15 16578.56 97.32 8.41 51.90 52.41 52.98 52.81 52.98 52.80 52.81 52.68 52.51 52.37 52.34 52.24 52.18 52.07 52.01 51.90 51.90 52.00 52.25 52.08 52.21 52.30 52.42 52.67 52.70 52.75 52.78
135.25 -9.27 -1129.15 16416.74 96.11 8.33 51.90 52.40 52.98 52.81 52.98 52.80 52.81 52.66 52.51 52.37 52.34 52.24 52.16 52.04 51.98 51.90 51.90 51.98 52.25 52.06 52.16 52.26 52.37 52.67 52.73 52.78 52.80
135.20 -9.27 -1133.64 16532.05 95.10 8.56 51.82 52.39 52.98 52.83 52.98 52.82 52.84 52.71 52.51 52.37 52.34 52.24 52.13 52.02 51.96 51.83 51.82 51.90 52.22 52.03 52.14 52.23 52.37 52.67 52.70 52.78 52.80
135.15 -9.27 -1129.15 16547.50 93.84 8.56 51.82 52.38 52.98 52.81 52.98 52.82 52.84 52.66 52.51 52.39 52.31 52.27 52.16 51.99 51.93 51.83 51.82 51.90 52.19 52.06 52.14 52.21 52.34 52.64 52.73 52.78 52.80
135.10 -9.16 -1133.64 16473.25 92.38 8.41 51.80 52.39 53.03 52.83 53.03 52.85 52.89 52.76 52.56 52.37 52.36 52.27 52.16 51.97 51.91 51.80 51.80 51.90 52.17 52.06 52.16 52.21 52.37 52.64 52.73 52.75 52.78
135.05 -9.16 -1133.64 16523.03 91.48 8.61 51.80 52.39 53.00 52.83 53.00 52.80 52.86 52.71 52.56 52.37 52.36 52.24 52.16 51.97 51.91 51.80 51.82 51.93 52.19 52.06 52.14 52.26 52.37 52.64 52.73 52.75 52.80
135.00 -9.16 -1129.15 16562.72 91.36 8.61 51.80 52.39 52.98 52.81 52.98 52.85 52.86 52.68 52.54 52.42 52.31 52.24 52.13 51.99 51.93 51.83 51.80 51.95 52.19 52.08 52.19 52.28 52.39 52.64 52.70 52.75 52.80
134.95 -9.22 -1133.64 16601.99 91.22 8.48 51.82 52.38 52.98 52.78 52.98 52.75 52.79 52.66 52.51 52.35 52.31 52.24 52.13 51.97 51.93 51.85 51.82 51.98 52.22 52.11 52.19 52.30 52.42 52.67 52.70 52.75 52.78
134.90 -9.22 -1133.64 16482.94 91.09 8.48 51.85 52.40 52.98 52.78 52.98 52.82 52.86 52.66 52.51 52.39 52.27 52.19 52.11 51.97 51.91 51.85 51.85 52.00 52.27 52.13 52.26 52.33 52.47 52.67 52.73 52.75 52.78
134.85 -9.22 -1133.64 16491.62 91.94 8.48 51.90 52.40 52.98 52.81 52.98 52.77 52.81 52.61 52.49 52.37 52.29 52.22 52.11 52.04 51.93 51.90 51.90 52.03 52.30 52.13 52.24 52.33 52.44 52.69 52.73 52.75 52.78
134.80 -9.21 -1133.64 16487.25 93.41 8.46 51.90 52.40 52.98 52.78 52.98 52.77 52.79 52.61 52.51 52.37 52.29 52.22 52.11 52.04 51.96 51.90 51.90 52.05 52.30 52.16 52.26 52.33 52.44 52.67 52.73 52.75 52.78
134.75 -9.21 -1133.64 16448.54 94.90 8.41 51.90 52.38 52.90 52.73 52.90 52.70 52.69 52.56 52.43 52.30 52.29 52.27 52.13 52.07 51.96 51.90 51.90 52.05 52.27 52.16 52.24 52.33 52.42 52.69 52.73 52.73 52.75
134.70 -9.21 -1129.15 16486.60 96.47 8.41 51.92 52.41 52.95 52.78 52.95 52.75 52.76 52.63 52.49 52.37 52.31 52.24 52.13 52.04 51.96 51.96 51.92 52.08 52.27 52.16 52.26 52.35 52.44 52.72 52.73 52.75 52.75
134.65 -9.14 -1129.15 16522.21 97.85 8.28 51.94 52.41 52.93 52.76 52.93 52.70 52.74 52.58 52.49 52.37 52.36 52.27 52.18 52.09 52.01 51.98 51.94 52.13 52.30 52.13 52.24 52.33 52.44 52.67 52.70 52.73 52.78
134.60 -9.14 -1129.15 16565.97 99.25 8.61 51.98 52.40 52.88 52.68 52.88 52.67 52.71 52.53 52.46 52.37 52.31 52.29 52.21 52.09 52.01 51.98 51.99 52.10 52.30 52.13 52.24 52.33 52.44 52.72 52.70 52.70 52.73
134.55 -9.14 -1129.15 16503.90 100.06 8.61 51.94 52.41 52.90 52.76 52.90 52.70 52.71 52.61 52.51 52.39 52.39 52.29 52.21 52.12 52.04 51.96 51.94 52.13 52.30 52.16 52.26 52.33 52.44 52.67 52.70 52.70 52.73
134.50 -9.23 -1133.64 16460.62 100.72 8.33 51.94 52.41 52.88 52.71 52.88 52.70 52.74 52.63 52.49 52.35 52.36 52.32 52.18 52.12 52.01 51.96 51.94 52.08 52.30 52.16 52.26 52.35 52.44 52.69 52.73 52.70 52.73
134.45 -9.23 -1133.64 16610.96 101.62 8.53 51.97 52.42 52.88 52.68 52.88 52.72 52.79 52.58 52.51 52.42 52.36 52.34 52.23 52.12 52.01 51.98 51.97 52.08 52.27 52.16 52.26 52.30 52.44 52.69 52.73 52.70 52.73
134.40 -9.23 -1129.15 16520.03 101.84 8.53 51.94 52.40 52.88 52.68 52.88 52.65 52.71 52.63 52.51 52.37 52.39 52.32 52.18 52.12 52.01 51.98 51.94 52.08 52.30 52.13 52.24 52.33 52.42 52.67 52.68 52.70 52.70
134.35 -9.14 -1133.64 16623.94 101.09 8.53 51.97 52.40 52.85 52.68 52.85 52.67 52.69 52.61 52.51 52.37 52.41 52.34 52.23 52.12 52.04 51.98 51.97 52.08 52.30 52.13 52.24 52.30 52.42 52.67 52.68 52.68 52.73
134.30 -9.14 -1133.64 16675.07 99.95 8.48 51.97 52.42 52.93 52.76 52.93 52.72 52.79 52.66 52.54 52.42 52.39 52.34 52.23 52.12 52.04 51.98 51.97 52.08 52.25 52.13 52.26 52.33 52.44 52.67 52.68 52.70 52.73
134.25 -9.14 -1133.64 16509.04 98.29 8.48 51.99 52.42 52.90 52.76 52.90 52.70 52.74 52.61 52.49 52.35 52.36 52.32 52.23 52.12 52.06 52.01 51.99 52.10 52.27 52.16 52.26 52.33 52.47 52.69 52.70 52.70 52.73
134.20 -9.14 -1133.64 16455.02 96.29 8.41 51.97 52.42 52.90 52.76 52.90 52.72 52.71 52.61 52.51 52.37 52.36 52.29 52.18 52.12 52.06 52.01 51.97 52.10 52.27 52.13 52.26 52.35 52.44 52.69 52.73 52.73 52.73
134.15 -9.18 -1129.15 16481.14 94.31 8.30 51.97 52.41 52.93 52.76 52.93 52.67 52.71 52.58 52.46 52.32 52.34 52.27 52.21 52.12 52.06 51.98 51.97 52.10 52.30 52.13 52.29 52.35 52.47 52.69 52.73 52.75 52.75
134.10 -9.18 -1133.64 16577.07 93.23 8.30 51.97 52.41 52.93 52.73 52.93 52.75 52.79 52.61 52.46 52.39 52.29 52.27 52.18 52.09 52.04 51.98 51.97 52.08 52.27 52.11 52.24 52.33 52.44 52.69 52.70 52.75 52.75
134.05 -9.18 -1129.15 16411.09 91.24 8.38 51.94 52.41 52.95 52.78 52.95 52.72 52.74 52.61 52.49 52.37 52.31 52.27 52.18 52.09 52.06 51.98 51.94 52.03 52.25 52.13 52.24 52.35 52.44 52.69 52.73 52.78 52.75
