~Version Information
VERS.                      2.0: CWLS Log ASCII Standard - VERSION 2.0
WRAP.                       NO: One line per depth step
#Non standard LAS - data should be wrapped
~Well Information Block
STRT.M                  140.00: START DEPTH
STOP.M                   80.00: STOP DEPTH
STEP.M                 -0.0500: STEP
NULL.                -999.2500: NULL VALUE
COMP.                         : COMPANY
WELL.                         : WELL
FLD.                          : FIELD
LOC.                          : LOCATION
DATE.         26 05-38-47 2014: LOG DATE
~Curve Information Block
DEPT.M             0 000 00 00: Depth
LSPD.M/MIN                   0: Line Speed
LTEN.KG                      0: Surface Line Tension
CCL.                        0: Casing Collar Locator
GR.GAPI                     0: Gamma Ray
WTEMP.DEGC                  0: GTC Well Temperature
MNRD.MM                      0: Min Radius
AVRD.MM                      0: Avg Radius
MXRD.MM                      0: Max Radius
R01.MM                       0: Radius 01
R02.MM                       0: Radius 02
R03.MM                       0: Radius 03
R04.MM                       0: Radius 04
R05.MM                       0: Radius 05
R06.MM                       0: Radius 06
R07.MM                       0: Radius 07
R08.MM                       0: Radius 08
R09.MM                       0: Radius 09
R10.MM                       0: Radius 10
R11.MM                       0: Radius 11
R12.MM                       0: Radius 12
R13.MM                       0: Radius 13
R14.MM                       0: Radius 14
R15.MM                       0: Radius 15
R16.MM                       0: Radius 16
R17.MM                       0: Radius 17
R18.MM                       0: Radius 18
R19.MM                       0: Radius 19
R20.MM                       0: Radius 20
R21.MM                       0: Radius 21
R22.MM                       0: Radius 22
R23.MM                       0: Radius 23
R24.MM                       0: Radius 24
~A  Depth   LSPD LTEN     CCL       GR    WTemp MNRD   AVRD   MXRD    R01    R02    R03    R04    R05    R06    R07    R08    R09    R10    R11    R12    R13    R14    R15    R16    R17    R18    R19    R20    R21    R22    R23    R24
# ...
110.00 -9.84 -1133.64 16505.77 105.35 7.94 53.51 54.07 54.69 54.38 54.37 54.22 54.39 54.49 54.36 54.13 54.05 53.92 53.72 53.66 53.52 53.51 53.55 53.62 53.68 53.94 54.06 54.13 54.16 54.27 54.34 54.47 54.69
109.95 -9.84 -1133.64 16547.82 105.18 7.89 53.52 54.06 54.51 54.36 54.37 54.24 54.43 54.51 54.38 54.20 54.05 53.96 53.77 53.69 53.52 53.53 53.60 53.65 53.70 53.92 54.06 54.03 54.09 54.22 54.27 54.37 54.50
109.90 -9.84 -1133.64 16478.15 105.31 7.69 53.58 54.07 54.54 54.31 54.37 54.24 54.43 54.54 54.43 54.20 54.14 53.99 53.79 53.73 53.60 53.58 53.62 53.67 53.70 53.92 54.01 54.03 54.07 54.22 54.24 54.33 54.38
109.85 -9.77 -1133.64 16498.41 106.02 7.69 53.60 54.06 54.58 54.33 54.40 54.26 54.46 54.58 54.45 54.23 54.14 53.99 53.82 53.73 53.60 53.61 53.60 53.67 53.72 53.90 53.99 54.01 54.07 54.20 54.24 54.33 54.19
109.80 -9.77 -1133.64 16506.01 106.83 7.92 53.58 54.04 54.51 54.28 54.35 54.22 54.41 54.51 54.38 54.20 54.09 54.03 53.82 53.73 53.60 53.58 53.60 53.65 53.70 53.90 53.99 54.01 54.07 54.20 54.24 54.30 54.03
109.75 -9.77 -1129.15 16591.23 107.40 7.74 53.58 54.04 54.54 54.28 54.35 54.24 54.41 54.54 54.41 54.18 54.09 53.99 53.82 53.71 53.60 53.58 53.60 53.65 53.70 53.90 53.99 54.01 54.07 54.20 54.27 54.33 53.95
109.70 -9.87 -1133.64 16503.94 108.45 7.74 53.56 54.04 54.58 54.33 54.42 54.26 54.43 54.58 54.43 54.18 54.12 53.99 53.82 53.73 53.60 53.56 53.60 53.62 53.70 53.85 53.97 53.98 54.07 54.22 54.27 54.30 53.83
109.65 -9.87 -1133.64 16479.63 109.98 7.84 53.56 54.03 54.58 54.36 54.44 54.33 54.48 54.58 54.43 54.20 54.12 53.99 53.82 53.73 53.60 53.56 53.58 53.60 53.70 53.82 53.92 53.98 54.07 54.20 54.24 54.30 53.72
109.60 -9.87 -1133.64 16551.51 112.38 7.97 53.51 54.02 54.56 54.38 54.44 54.33 54.48 54.56 54.38 54.23 54.07 53.96 53.79 53.69 53.55 53.51 53.53 53.53 53.65 53.80 53.92 53.98 54.07 54.22 54.29 54.33 53.79
109.55 -9.82 -1129.15 16533.65 115.16 7.97 53.46 54.02 54.54 54.43 54.47 54.36 54.48 54.54 54.38 54.20 54.05 53.94 53.74 53.66 53.50 53.46 53.50 53.50 53.63 53.80 53.92 53.98 54.09 54.25 54.34 54.40 53.81
109.50 -9.82 -1133.64 16516.94 117.97 7.79 53.38 54.03 54.61 54.52 54.56 54.41 54.55 54.61 54.45 54.18 54.07 53.87 53.67 53.59 53.42 53.38 53.43 53.45 53.60 53.80 53.94 54.03 54.16 54.32 54.41 54.44 53.91
109.45 -9.82 -1133.64 16495.97 121.22 7.76 53.36 54.03 54.58 54.55 54.56 54.43 54.53 54.58 54.41 54.15 54.02 53.85 53.62 53.52 53.37 53.36 53.41 53.43 53.60 53.77 53.92 54.03 54.16 54.32 54.43 54.49 54.10
109.40 -9.82 -1129.15 16478.70 124.45 7.76 53.31 54.04 54.63 54.62 54.63 54.45 54.57 54.63 54.45 54.20 54.00 53.82 53.60 53.49 53.35 53.31 53.36 53.43 53.58 53.77 53.92 54.06 54.19 54.36 54.46 54.54 54.17
109.35 -9.78 -1129.15 16499.40 127.71 7.82 53.33 54.03 54.60 54.60 54.59 54.41 54.50 54.51 54.38 54.11 53.91 53.78 53.58 53.49 53.35 53.33 53.38 53.43 53.58 53.75 53.92 54.08 54.24 54.41 54.48 54.56 54.26
109.30 -9.78 -1133.64 16529.25 131.11 7.76 53.30 54.03 54.60 54.60 54.59 54.41 54.50 54.54 54.38 54.08 53.93 53.75 53.53 53.44 53.30 53.31 53.36 53.43 53.58 53.77 53.97 54.10 54.21 54.41 54.48 54.54 54.46
109.25 -9.78 -1133.64 16481.76 134.48 7.76 53.32 54.04 54.62 54.62 54.59 54.41 54.48 54.51 54.43 54.11 53.93 53.75 53.55 53.44 53.32 53.33 53.36 53.45 53.58 53.80 53.97 54.13 54.21 54.41 54.48 54.56 54.58
109.20 -9.87 -1133.64 16486.71 137.19 7.87 53.30 54.05 54.74 54.55 54.54 54.29 54.39 54.47 54.38 54.06 53.91 53.73 53.53 53.44 53.30 53.31 53.36 53.50 53.63 53.90 54.06 54.22 54.31 54.43 54.50 54.63 54.74
109.15 -9.87 -1133.64 16477.07 139.50 7.87 53.32 54.07 54.84 54.62 54.56 54.36 54.46 54.47 54.38 54.11 53.91 53.75 53.55 53.47 53.32 53.33 53.38 53.50 53.63 53.90 54.09 54.20 54.28 54.41 54.50 54.63 54.84
109.10 -9.87 -1133.64 16494.13 140.82 7.87 53.32 54.07 54.81 54.55 54.49 54.34 54.43 54.44 54.38 54.11 53.88 53.75 53.53 53.44 53.32 53.36 53.43 53.57 53.65 53.94 54.11 54.20 54.28 54.43 54.53 54.61 54.81
109.05 -9.79 -1133.64 16458.88 141.37 7.64 53.33 54.07 54.81 54.55 54.49 54.36 54.43 54.47 54.38 54.15 53.95 53.80 53.58 53.47 53.35 53.33 53.41 53.55 53.68 53.90 54.06 54.20 54.28 54.39 54.50 54.61 54.81
109.00 -9.79 -1133.64 16562.31 141.18 7.94 53.36 54.06 54.69 54.52 54.49 54.29 54.43 54.54 54.41 54.13 54.02 53.85 53.62 53.49 53.37 53.36 53.41 53.53 53.65 53.90 54.06 54.15 54.24 54.36 54.46 54.56 54.69
108.95 -9.79 -1129.15 16573.97 139.65 7.94 53.38 54.07 54.58 54.50 54.49 54.26 54.41 54.54 54.41 54.15 54.07 53.92 53.67 53.54 53.42 53.38 53.41 53.53 53.65 53.90 54.06 54.15 54.24 54.36 54.46 54.51 54.58
108.90 -9.75 -1133.64 16485.16 137.45 7.92 53.43 54.07 54.56 54.50 54.49 54.31 54.46 54.56 54.41 54.18 54.09 53.94 53.72 53.61 53.47 53.43 53.43 53.50 53.65 53.85 54.01 54.10 54.19 54.34 54.43 54.51 54.53
108.85 -9.75 -1129.15 16413.58 134.98 7.74 53.43 54.07 54.54 54.48 54.49 54.31 54.46 54.54 54.41 54.20 54.14 54.01 53.77 53.64 53.47 53.43 53.43 53.50 53.65 53.82 54.01 54.10 54.21 54.34 54.43 54.49 54.36
108.80 -9.75 -1133.64 16430.63 132.46 7.74 53.41 54.06 54.54 54.48 54.47 54.38 54.48 54.54 54.38 54.23 54.09 54.13 53.89 53.66 53.47 53.41 53.43 53.50 53.60 53.77 53.89 54.01 54.14 54.32 54.43 54.44 54.19
108.75 -9.75 -1133.64 16526.90 129.58 7.84 53.38 54.04 54.49 54.43 54.49 54.36 54.46 54.49 54.36 54.13 54.07 54.15 53.93 53.64 53.40 53.38 53.43 53.50 53.63 53.75 53.87 53.96 54.12 54.36 54.46 54.42 54.10
108.70 -9.86 -1133.64 16554.20 128.01 7.84 53.41 54.03 54.51 54.48 54.49 54.36 54.48 54.51 54.36 54.15 54.09 54.11 53.89 53.66 53.42 53.41 53.43 53.50 53.63 53.70 53.80 53.86 54.05 54.29 54.41 54.42 54.12
108.65 -9.86 -1129.15 16448.19 124.40 7.94 53.43 54.03 54.58 54.55 54.56 54.41 54.53 54.58 54.43 54.25 54.16 53.99 53.77 53.64 53.45 53.43 53.48 53.57 53.58 53.68 53.75 53.84 53.95 54.22 54.36 54.42 54.17
108.60 -9.86 -1129.15 16528.79 120.88 7.84 53.43 54.03 54.67 54.67 54.66 54.50 54.57 54.65 54.45 54.27 54.14 53.94 53.70 53.57 53.45 53.43 53.48 53.60 53.63 53.70 53.68 53.57 53.76 54.15 54.41 54.51 54.26
108.55 -9.77 -1133.64 16499.13 116.83 7.84 52.72 53.95 54.67 54.67 54.61 54.48 54.57 54.61 54.43 54.27 54.12 53.92 53.67 53.54 53.37 53.38 53.46 53.67 53.80 53.75 53.42 52.72 53.01 53.87 54.46 54.63 54.31
108.50 -9.77 -1133.64 16505.36 113.04 7.58 53.37 54.00 54.70 54.67 54.66 54.53 54.62 54.70 54.48 54.25 54.14 53.92 53.70 53.54 53.37 53.41 53.48 53.55 53.70 53.75 53.56 53.41 53.54 53.92 54.34 54.49 54.26
108.45 -9.77 -1133.64 16501.88 110.12 7.87 53.38 54.01 54.75 54.69 54.73 54.60 54.69 54.75 54.50 54.27 54.12 53.92 53.70 53.54 53.40 53.38 53.46 53.43 53.58 53.63 53.58 53.62 53.73 54.01 54.27 54.40 54.26
108.40 -9.75 -1129.15 16540.53 107.63 7.87 53.35 54.01 54.76 54.69 54.75 54.69 54.76 54.75 54.48 54.32 54.05 53.89 53.67 53.54 53.40 53.36 53.38 53.35 53.48 53.55 53.58 53.65 53.81 54.04 54.27 54.37 54.38
108.35 -9.75 -1129.15 16536.58 104.96 8.00 53.29 54.00 54.76 54.69 54.75 54.67 54.76 54.75 54.48 54.25 54.05 53.85 53.65 53.52 53.37 53.29 53.34 53.30 53.45 53.55 53.61 53.70 53.88 54.08 54.32 54.37 54.36
108.30 -9.75 -1133.64 16516.72 101.88 7.69 53.14 53.99 54.83 54.83 54.80 54.64 54.67 54.61 54.38 54.08 53.84 53.61 53.39 53.27 53.17 53.14 53.17 53.26 53.45 53.63 53.78 53.94 54.12 54.32 54.55 54.56 54.60
108.25 -9.75 -1133.64 16473.50 99.13 7.69 53.06 53.99 54.85 54.81 54.85 54.69 54.76 54.75 54.48 54.23 54.00 53.73 53.46 53.27 53.12 53.06 53.09 53.18 53.38 53.58 53.75 53.86 54.00 54.20 54.43 54.47 54.58
108.20 -9.84 -1133.64 16540.74 97.19 7.84 53.04 53.97 54.76 54.76 54.75 54.67 54.76 54.72 54.45 54.25 54.00 53.78 53.48 53.30 53.12 53.04 53.09 53.13 53.35 53.55 53.73 53.86 53.97 54.15 54.39 54.47 54.55
108.15 -9.84 -1129.15 16080.85 96.25 7.58 52.76 53.79 54.62 54.50 54.56 54.50 54.62 54.61 54.38 54.13 53.88 53.64 53.34 53.11 52.92 52.76 52.83 52.86 53.11 53.36 53.58 53.70 53.81 53.99 54.22 54.30 54.36
108.10 -9.84 -1133.64 17262.40 96.08 7.58 52.71 53.78 54.65 54.50 54.59 54.55 54.64 54.65 54.38 54.04 53.86 53.54 53.24 52.96 52.82 52.71 52.73 52.86 53.11 53.34 53.58 53.77 53.90 54.04 54.24 54.33 54.38
108.05 -9.75 -1133.64 16123.63 97.06 7.84 51.76 52.50 53.35 53.35 53.18 52.80 52.77 52.77 52.83 52.69 52.59 52.39 52.37 52.33 52.41 52.29 52.06 51.78 51.76 51.98 52.04 52.21 52.21 52.27 52.69 53.10 53.21
